ville,historic,building,amenity,tourism,name,name:ar,lat,lon,surface_m2
Tunis,castle,yes,,,حصن حلق الوادي,حصن حلق الوادي,36.814461574248774,10.30361231441209,8485.262018216925
Tunis,yes,mosque,place_of_worship,,جامع القيروان الكبير,جامع القيروان الكبير,35.68152782652255,10.10400557798134,6373.458075577308
Tunis,,yes,place_of_worship,,الجامع الكبير,الجامع الكبير,35.503859534048274,11.072057804495271,2778.3992061255185
Tunis,,mosque,place_of_worship,,الجامع الكبير بسوسة,الجامع الكبير بسوسة,35.826830818884815,10.639745672519869,2097.122197778635
Tunis,archaeological_site,ruins,,,Uthina Amphitheatre,,36.60862105699365,10.169238279138835,6560.16358739995
Tunis,,yes,place_of_worship,,,,36.71608623257662,10.726326919288343,2260.685875170759
Tunis,castle,public,,,الوزارة الأولى,الوزارة الأولى,36.797513285571945,10.169210095008555,5456.487279217636
Tunis,castle,yes,,,برج علي الرايس,,36.780612236988155,10.18569238599348,2674.105136770832
Tunis,castle,yes,,museum,دار بن عبد الله,دار بن عبد الله,36.793999707685074,10.173813042782553,435.7461418399315
Tunis,yes,mosque,place_of_worship,,جامع الزيتونة,جامع الزيتونة,36.79728856492504,10.171313599502884,3248.055949901429
Tunis,,yes,,museum,دار معقل الزعيم,دار معقل الزعيم,36.79365132126072,10.164383085492666,817.7269710666792
Tunis,monument,yes,public_building,,Centre National d'Art de la Calligraphie Arabe,,36.807404902794694,10.16627721647521,610.2817793118102
Tunis,,yes,place_of_worship,,مسجد العمران,مسجد العمران,36.81698245743843,10.160341003439077,1429.3230852744891
Tunis,,yes,place_of_worship,,جامع المعز,جامع المعز,36.83677259436372,10.178689813267782,1186.8277746874023
Tunis,monument,,place_of_worship,,مقام أبي زمعة البلوي,مقام أبي زمعة البلوي,35.68211162524238,10.090329411635842,2940.703974349323
Tunis,,mosque,,,,,36.860102884271996,10.16364904500379,972.9975129645446
Tunis,ruins,,,,Rotonde de Damous el Karita,,36.86083515882811,10.330031136883203,92.2001482114795
Tunis,,yes,,museum,المتحف الوطني العسكري بقصر الوردة,المتحف الوطني العسكري بقصر الوردة,36.81132321270344,10.098501471254153,1896.4920574655048
Tunis,castle,yes,,,,,37.16909446051991,10.191673680283285,1289.9844813211366
Tunis,castle,yes,,,حصن السجن القديم,حصن السجن القديم,37.16957148565034,10.194414984821464,2286.0160032385934
Tunis,castle,yes,,,البرج,البرج,37.167614804736715,10.179457250552336,1296.3088337900886
Tunis,,yes,,museum,المتحف الوطني بباردو,المتحف الوطني بباردو,36.80935380138232,10.134229874880846,7195.7523050324435
Tunis,,yes,place_of_worship,,,,36.834344097420846,10.167738872718255,1621.4850108545656
Tunis,building,yes,,,Hotel Marhala,,33.87755994948323,10.85950607212336,864.4436360652012
Tunis,building,yes,,,Fondouk Jomni,,33.87766296522606,10.85907868962285,831.917483218027
Tunis,building,yes,,,Auberge de la Jeunesse,,33.87730712474272,10.859462255637,525.7283084057635
Tunis,archaeological_site,,,,قصر غيلان,قصر غيلان,33.008636204103084,9.616212437012683,566.1039073805122
Tunis,castle,yes,,,قصر الحلوف,قصر الحلوف,33.29125433171539,10.157294445811493,3873.1594877434545
Tunis,ruins,,,attraction,قصر الزهرة,قصر الزهرة,32.81702405979213,10.565857265740059,3680.8237214105084
Tunis,building,yes,,,Ksar Ouled Mohammed,,32.89791012032101,10.52523314263104,1733.2762997778666
Tunis,ruins,yes,,attraction,قصر أولاد سلطان,قصر أولاد سلطان,32.78840181829609,10.514864358070506,1847.3041847514833
Tunis,,yes,place_of_worship,,,,36.3512886493303,9.622522168161144,1363.1700366862833
Tunis,castle,yes,,,Petit Fort,,36.18146000127669,8.711906949030352,1200.1522083209522
Tunis,castle,yes,,,الحصن الكبير,الحصن الكبير,36.18207993857028,8.712807829794343,3054.7256595657996
Tunis,ruins,,,,بازيليكا,بازيليكا,36.181680285120926,8.7133470561325,721.9162734151537
Tunis,,,place_of_worship,,,,36.18160128200246,8.708031519500105,1266.2922504132464
Tunis,ruins,,,,مسجد سيدي بو مخلوف,مسجد سيدي بو مخلوف,36.18195518560544,8.713888463186098,376.38744656851355
Tunis,,mosque,place_of_worship,,Mosquée Omar Ibn Khattab,,36.711500234500534,10.373425110753253,651.5475389116962
Tunis,,mosque,place_of_worship,,مسجد الرحمة,مسجد الرحمة,36.7062390457567,10.40892227720424,1380.2136716825876
Tunis,,yes,place_of_worship,,جامع أبو بكر الصديق,جامع أبو بكر الصديق,36.81476842527157,10.30262383626735,1464.9907505942167
Tunis,ruins,yes,,,Ksar Lemsa,,36.03592686552031,9.691955708541695,368.2921868883908
Tunis,archaeological_site,,,,بولا ريجيا,بولا ريجيا,36.55964597830792,8.754804211487546,384827.4198924306
Tunis,ruins,,,,Arc de triomphe,,36.5576321458062,8.753046125179127,42.0842116541156
Tunis,ruins,,,,,,36.558159845541745,8.756339822695045,5151.446893339483
Tunis,ruins,ruins,,,معبد فروغيفر وليبر باتر,معبد فروغيفر وليبر باتر,36.42227938943937,9.219281635530152,565.9082134143779
Tunis,ruins,ruins,,,Amphithéatre Mactaris,,35.855524555659635,9.206436054262278,574.4819385814676
Tunis,,yes,,museum,,,36.947854979310804,11.09865583092889,536.1372577889946
Tunis,building,yes,,,Ksar Dagaghra,,32.92114394084715,10.441957994268975,741.3914584615173
Tunis,building,yes,,,قصر أولاد عبد الواحد,قصر أولاد عبد الواحد,32.90409465958618,10.523776334512917,1308.3270928010904
Tunis,ruins,yes,,,Ksar Khatma,,32.851075017925545,10.542411589799467,1766.2106017545286
Tunis,building,ruins,,,قصر عبد الله,قصر عبد الله,32.90252094842224,10.524507536639709,1844.1398391207306
Tunis,,museum,,museum,Musée du Quartier Sud de Thysdrus,,35.28955190149625,10.704878321994084,759.8878634335424
Tunis,,mosque,place_of_worship,,,,35.29199222283463,10.706343025080022,1791.50029087062
Tunis,,museum,,museum,متحف الجم,,35.28949744936182,10.705434647679754,1139.8108394608412
Tunis,archaeological_site,ruins,,attraction,Amphithéâtre d'El Jem,مدرّج الجم الروماني,35.29640949331146,10.706947168370554,12781.533431673972
Tunis,,mosque,,,,,35.341902018237846,10.546265240139569,1889.6624344398533
Tunis,ruins,,,,الآثار الرومانية (الحمامات),الآثار الرومانية (الحمامات),36.756749111911724,10.018661967785691,689.5221356847716
Tunis,,mosque,,,,,36.455049709396526,10.72363038618691,1883.2764361844038
Tunis,,mosque,,,,,36.75807069790794,10.222635005706953,1960.6754466102445
Tunis,,mosque,place_of_worship,,,,35.77667705069329,10.830861372152137,542.1978980165468
Tunis,,mosque,place_of_worship,,,,33.61770635787366,10.290120863156808,1803.7093568013393
Tunis,archaeological_site,,,,موستي,موستي,36.33680529977932,9.143544577964212,200749.12480929113
Tunis,,yes,place_of_worship,,Grand Mosquée,,33.50387688126857,11.112166127982109,842.1352650751103
Tunis,,mosque,place_of_worship,,Mosquée Errahma,,36.372318388351935,9.901541236255643,2073.9866879526135
Tunis,,mosque,,,,,36.84996965076966,10.177160988537874,2163.443361214027
Tunis,,mosque,,,,,36.55006524128839,9.446495492473593,249.1768280946794
Tunis,castle,yes,arts_centre,,Club Culturel Taher Haddad,,36.80208243191586,10.168168657325518,271.0823419457238
Tunis,building,yes,,,قصر المرابطين,قصر المرابطين,33.03201333009691,10.377144316124328,886.6658990300671
Tunis,ruins,yes,,,Ksar el Ferch,,33.00656917465386,10.34295048877,4046.0248536207164
Tunis,building,yes,,,,,33.876471087195625,10.857966034729237,658.9478656433029
Tunis,,yes,place_of_worship,,مسجد ابو لبابة الأنصاري,مسجد ابو لبابة الأنصاري,33.869008087256745,10.091498277121103,2723.4636455950563
Tunis,,mosque,,,مالك إبن أنس,,36.85936896228506,10.329121518787733,5280.6874066822775
Tunis,,yes,place_of_worship,,,,36.86006389951516,10.190452613986164,1352.317723483896
Tunis,ruins,yes,,,Ksar Aouadid,,32.85478603260951,10.47108156102705,811.8531271774439
Tunis,castle,yes,,,Ksar Ouled Aoun,قصر أولاد عون,32.86377382495174,10.472127524312855,742.7492013770127
Tunis,ruins,yes,,,قصر أولاد عبد السيد,قصر أولاد عبد السيد,32.8075099301799,10.481408154581985,695.6771591276249
Tunis,ruins,yes,,,Ksar Tounket,,32.88219942168366,10.498467971418338,631.8730341196192
Tunis,,yes,place_of_worship,,الجامع الكبير جارة,الجامع الكبير جارة,33.888556166839216,10.095766824470248,1927.6902845490094
Tunis,,yes,place_of_worship,,,,33.25098100036477,10.20056165457945,338.6680627231031
Tunis,ruins,yes,,,Ksar Daghra,قصر دغارة,32.84776250012033,10.467715249884128,1141.7084884260394
Tunis,ruins,yes,,,,,32.98746106558415,10.251267436467387,5055.394007561787
Tunis,,yes,place_of_worship,,مسجد إبراهيم جمني,مسجد إبراهيم جمني,33.87708102289049,10.860015705132428,668.5716726733567
Tunis,ruins,,,,Ksar Boulassouar,,33.31745400509783,10.141595456484152,496.37674001549885
Tunis,,yes,place_of_worship,,,,33.70446379083345,10.26479135991652,644.3694638746309
Tunis,,yes,place_of_worship,,Mosquée Meriem,,35.166396597189994,8.787296189284254,1517.4410119172942
Tunis,,mosque,place_of_worship,,مسجد الهداية 2,مسجد الهداية 2,35.564378031492,8.446207717764572,669.9772600589207
Tunis,,yes,place_of_worship,,Mosquée Bechechma,,35.83987609279754,10.17907206321787,683.3616528934353
Tunis,fort,yes,,,رباط سوسة,رباط سوسة,35.827646501648545,10.638746280878044,1255.581541192309
Tunis,castle,fort,,,الرباط,الرباط,35.67619369812055,10.882028939431914,585.8844007225043
Tunis,fort,fort,,,,,35.77473485245234,10.832437067300464,900.2183743311839
Tunis,,yes,place_of_worship,,زاوية سيدي عمار,,36.859184594285,10.190706676686297,667.4653174082252
Tunis,citywalls,,,attraction,مدينة صفاقس العتيقة,مدينة صفاقس العتيقة,34.73592540574669,10.760662315131626,234574.32279497536
Tunis,monument,,,,برج النار,برج النار,34.735455815239945,10.764388787477836,600.608000338766
Tunis,ruins,,,,Ksar El Rosfa,,33.053394545006,10.334645820826287,11414.470859600005
Tunis,,yes,place_of_worship,,,,32.69502085271886,10.330028920305992,689.4791909622795
Tunis,archaeological_site,,,,Ghar El Kebir,,37.058683735142196,10.996724999183035,61166.2455147248
Tunis,castle,yes,,,Borj LaHssar,,34.71038607143255,11.15349495959181,415.9861059603619
Tunis,castle,yes,,,,قصبة,36.394514449565804,10.612345765775588,1431.8488331530673
Tunis,building,yes,,,Hôtel Erriadh,,33.87678864670841,10.8587403458776,527.0160712009266
Tunis,ruins,,,,قصر الحلوف,قصر الحلوف,33.29124093913618,10.157273191388052,7322.030466160804
Tunis,archaeological_site,,,,Djebel Oust archaeological site;grande cisterne,,36.53367605026619,10.07081570723808,69451.21308866158
Tunis,building,yes,,,Madrassa Sidi Moussa Jomani,,33.54397603853258,9.973179752502109,794.1868947397857
Tunis,,yes,place_of_worship,,مسجد السماعلة,مسجد السماعلة,33.54042975209857,9.966761483387408,224.48746409996886
Tunis,castle,yes,,,Fort de Mahdia,,35.50528313688658,11.076268223019479,2948.757348876674
Tunis,,yes,place_of_worship,,Mosquée Bourguiba,,35.774331268303705,10.83045390417256,1879.0187636218552
Tunis,castle,yes,,,القصبة,القصبة,35.82218786957721,10.635555860501702,3697.985306440488
Tunis,,yes,,museum,Museum El-Kobba,,35.82508888154551,10.638168103871504,517.6139548172042
Tunis,,yes,place_of_worship,,Ajjamaa Elkebir,,34.414881056361295,8.78556480814338,1569.0755334299947
Tunis,,mosque,,,,,37.26628705403462,9.87640498389897,2480.1158884790007
Tunis,,mosque,,,,,37.25060488178026,9.881408831334923,1694.6344687728367
Tunis,castle,yes,,,Fort d'Espagne,,37.28115161709111,9.870710303866302,2351.4236716864075
Tunis,castle,yes,,,Jebel Kebir Fort,,37.298251077851596,9.828945106947302,9449.257899952341
Tunis,,yes,place_of_worship,,,,37.25653669697136,9.84037051733588,1676.2940333798863
Tunis,,yes,place_of_worship,,,,35.729214787064585,10.579566807334812,3212.3853517954003
Tunis,,yes,place_of_worship,,,,35.707449193865905,10.670093630034636,1845.198044294023
Tunis,,yes,place_of_worship,,,,35.65487503296345,10.098350912549996,1053.746519511585
Tunis,,mosque,,,,,33.34439181109895,10.493272801534864,1389.8935275715826
Tunis,,yes,place_of_worship,,,,36.28267119219082,10.474797938169761,831.0605017642014
Tunis,building,yes,,,La Ghriba Caravansérail,خان الغريبة,33.81389835438848,10.858826860517562,2389.3028858678476
Tunis,fort,yes,,,قلعة الشكلي,قلعة الشكلي,36.816574858827494,10.217126408121413,1469.0459200975015
Tunis,monument,cathedral,,,Cathédrale Saint Louis,كاتدرائية القديس لويس,36.853685412459825,10.323380082644544,1627.2493734031455
Tunis,archaeological_site,,,,حي ماغون,حي ماغون,36.85118637658668,10.331293963564567,7299.8955505083095
Tunis,archaeological_site,,,,الحمامات أنطونيس العامة,الحمامات أنطونيس العامة,36.85472161190038,10.333959588743333,76239.55542846576
Tunis,ruins,,,,Edifice des Colonnes,,36.85653712375901,10.325232045372722,3900.8794381321795
Tunis,archaeological_site,,,,Amphithéâtre de Carthage,,36.8561856790194,10.315033888036371,7059.120886523662
Tunis,ruins,,,,نصب دائري,نصب دائري,36.857816064893015,10.327850389710866,15321.537631745763
Tunis,ruins,,,attraction,Rotonde de Damous el Karita,,36.861029290745556,10.330044157113905,3277.4427472155985
Tunis,ruins,,,,Basilique Saint Cyprian,,36.86391929170218,10.337391920772884,742.3973974102157
Tunis,,yes,place_of_worship,,Sahloul,,35.835955541270685,10.596069241526044,2558.930980695795
Tunis,,yes,place_of_worship,,جامع التوبة الحاجب,جامع التوبة الحاجب,34.71855042025574,10.648081484256075,1041.1495248881067
Tunis,archaeological_site,,,,Colline de Byrsa,,36.85267330960543,10.32354221992808,51315.57769433215
Tunis,castle,,,attraction,رباط المنستير,رباط المنستير,35.77615994576198,10.832913777529411,4954.352248207505
Tunis,archaeological_site,,,attraction,كركوان,كركوان,36.94591990117053,11.099150557202131,101831.80826575293
Tunis,,,place_of_worship,,جامع الملك عبد العزيز عبد الرحمان آل سعود,جامع الملك عبد العزيز عبد الرحمان آل سعود,36.838692302024576,10.157551596338541,1527.6647164769645
Tunis,,yes,place_of_worship,,جامع الهداية,جامع الهداية,34.78225089721775,10.727548635171065,1242.5956081037014
Tunis,,mosque,place_of_worship,,جامع مركز السلامي,جامع مركز السلامي,34.778943409825466,10.725775803809867,996.2667335839848
Tunis,,yes,place_of_worship,,جامع الهدى,جامع الهدى,34.77665521817371,10.727620427893012,621.9306331856692
Tunis,archaeological_site,,,attraction,آثار رومانية سبيطلة,آثار رومانية,35.241124762305965,9.118901593797952,352570.30173934525
Tunis,,mosque,place_of_worship,,الجامع الكبير,الجامع الكبير,34.735858077085865,10.760862643582573,2005.93117600374
Tunis,,,place_of_worship,,جامع الأمان,جامع الأمان,34.75171259896033,10.693021294380113,905.8466967439775
Tunis,,,place_of_worship,,جامع السماوي,جامع السماوي,34.77840081287639,10.699490222260588,303.3409163761647
Tunis,,mosque,place_of_worship,,جامع مركز شاكر,جامع مركز شاكر,34.74055559991039,10.738818828583913,1099.8621902537668
Tunis,,,place_of_worship,,الجامع الكبير بالعين مركز بن حليمة,الجامع الكبير بالعين مركز بن حليمة,34.76935544805584,10.707078502443593,616.6978609520061
Tunis,,temple,place_of_worship,,الكنيسة الأرثوذكسية اليونانية,الكنيسة الأرثوذكسية اليونانية,34.732847883609466,10.760740990764385,171.57952506496508
Tunis,,synagogue,place_of_worship,,معبد بيت إيل,معبد بيت إيل‎,34.732183157980934,10.758079473670843,1680.164570527147
Tunis,,,,museum,دار الجلولي,دار الجلولي,34.736838970497416,10.7623840641093,253.61023412426715
Tunis,monument,,,,ضريح سيدي عمر كمور,ضريح سيدي عمر كمور,34.735236220674594,10.763175409286049,405.8221346663202
Tunis,,,place_of_worship,,3 جامع حي البحري,3 جامع حي البحري,34.72808248692865,10.703319208059016,1089.1494881303233
Tunis,,,place_of_worship,,جامع الفلاح,جامع الفلاح,34.74756785874066,10.705555940470372,1611.805430918613
Tunis,,,place_of_worship,,جامع مركز دمق,جامع مركز دمق,34.75044643035945,10.716862251539526,2475.2688698414413
Tunis,,,place_of_worship,,إدمون عزريا,إدمون عزريا,34.73094293528611,10.763892858007198,135.32276065369072
Tunis,,,place_of_worship,,جامع الحمد,جامع الحمد,34.76133356314122,10.693629849280677,585.5673308790713
Tunis,monument,mosque,place_of_worship,attraction,ضريح الحبيب بورقيبة,ضريح الحبيب بورقيبة,35.777784543631356,10.828357224033983,1810.706642781974
Tunis,,,place_of_worship,,,,36.90450128370054,10.299097976586916,5333.9852845899195
Tunis,,,place_of_worship,,رعية القديس قبريانوس القرطاجي,رعية القديس قبريانوس القرطاجي,36.87594382273177,10.338657620995598,8547.476814384343
Tunis,,,place_of_worship,,جامع الغفران,جامع الغفران,36.87043479975671,10.344044544532988,3185.2318706803408
Tunis,archaeological_site,,,,صهاريج مالجا,صهاريج مالجا,36.85880506618591,10.318910800229451,35817.81275344635
Tunis,,,place_of_worship,,جامع سيدي عبد العزيز,جامع سيدي عبد العزيز,36.88761862985744,10.323828634396046,10133.9880559919
Tunis,,mosque,,,,,36.887755914574775,10.32359328853857,1449.8389096364092
Tunis,archaeological_site,,,,مسرح روماني,مسرح روماني,36.857664453016426,10.329405502683072,18412.665170303553
Tunis,,,place_of_worship,,Église Saint-Augustin-et-Saint-Fidèle,كنيسة القديس أوغسطينوس والقديس فيديل,36.816080087843254,10.301594381025668,2497.2539150232333
Tunis,archaeological_site,,,,بئر مسعودة,بئر مسعودة,36.85090286225509,10.32721365474414,15419.358650529488
Tunis,ruins,,,attraction,مسرح روماني,مسرح روماني,36.857863332514206,10.329547645985206,4254.901314841828
Tunis,,,,museum,المتحف المسيحي المبكر بقرطاج,المتحف المسيحي المبكر بقرطاج,36.84822012154502,10.324525721370245,32170.125060727445
Tunis,,,place_of_worship,,جامع الغفران,جامع الغفران,36.85154084000312,10.261757679311488,3123.5365889462846
Tunis,ruins,yes,,,Church of Oued Zarga,,36.67676865000001,9.41338625,46.16192591243405
Tunis,,yes,,museum,Musée du Tapis,,35.67253315000001,10.099174699999999,1183.7351062593252
Tunis,ruins,,,attraction,فسقيات الأغالبة,فسقيات الأغالبة,35.68739178608128,10.096539941872683,135926.45431425452
Tunis,ruins,,,,Théâtre,,35.23959280916657,9.122422269015885,2645.4586161200086
Tunis,ruins,ruins,,,Forum,,35.24043877914967,9.119544192513672,2763.422488161462
Tunis,ruins,,,,Arc Tétrarchie,,35.23563831073299,9.123544086839813,107.41706863113657
Tunis,,yes,place_of_worship,,جامع القصبة,جامع القصبة,36.79677466806868,10.16762432378332,2357.6528500863274
Tunis,yes,,school,,المعهد الصادقي,المعهد الصادقي,36.79847312952609,10.166305546530955,14121.5520517238
Tunis,yes,yes,place_of_worship,,جامع سيدي محرز,جامع سيدي محرز,36.804215400000004,10.168433099999998,3177.743669604095
Tunis,yes,mosque,place_of_worship,,جامع يوسف داي,جامع يوسف داي,36.79700426719132,10.16956876477757,1500.1481508567279
Tunis,monument,,,,Mausolée de la Zaouïa de Sidi Mahrez,,36.80469150790026,10.16887275237161,2258.967784862038
Tunis,yes,mosque,place_of_worship,,جامع صاحب الطابع,جامع صاحب الطابع,36.80767682607523,10.166638521008586,5493.041127993811
Tunis,,,place_of_worship,,الكنيس الكبير بتونس,الكنيس الكبير بتونس,36.81037967702368,10.180111112645381,807.8745225022784
Tunis,castle,yes,,,دار عثمان,دار عثمان,36.79494086098691,10.174279998706796,665.2110163874258
Tunis,yes,mosque,place_of_worship,,مسجد حمودة باشا,مسجد حمودة باشا,36.79824064626309,10.170578704320425,1510.7544301792504
Tunis,castle,yes,,,دار حمودة باشا,دار حمودة باشا,36.79862571173332,10.169703126421407,694.7660638011254
Tunis,yes,yes,place_of_worship,,جامع الصباغين (الجامع الجديد),جامع الصباغين,36.794729860798405,10.173745223280209,1503.3947190274055
Tunis,yes,yes,place_of_worship,,جامع القصر,جامع القصر,36.79516105374267,10.169836335395978,1068.5472664708914
Tunis,monument,yes,,,تربة الباي,تربة الباي,36.79368744848593,10.173125107039196,1484.241181445304
Tunis,,yes,,museum,Sousse Archaeological Museum,,35.82313753170645,10.635438795549996,665.6083094452144
Tunis,monument,,,,Théâtre Sidi Dhaher,,35.8216813223033,10.636336282273161,3402.4604571065966
Tunis,,mosque,,,,,35.50390637129534,11.0720140333978,4518.634007166821
Tunis,,yes,place_of_worship,,الجامع الكبير,الجامع الكبير,35.775619876425814,10.833549723809371,1176.1680895838554
Tunis,ruins,ruins,,,معبد كاليكتيس,معبد كاليكتيس,36.42280171870603,9.215726412143296,2106.9770258164435
Tunis,ruins,ruins,,,حمامات سيكلوبس,حمامات سيكلوبس,36.42173440905904,9.220226001644145,705.4919840744038
Tunis,ruins,ruins,,,قوس سبتيميس سفرس,قوس سبتيميس سفرس,36.42185416900292,9.221422471350596,57.939249828711695
Tunis,ruins,ruins,,,معبد دار الأشهب,معبد دار الأشهب,36.421821447401086,9.217808654163102,636.387916501666
Tunis,ruins,ruins,,,معبد بلوتون,معبد بلوتون,36.422092218972736,9.22071596670427,1001.4193006155523
Tunis,ruins,ruins,,,منتدى,منتدى,36.42269515556615,9.21784961530708,1328.8228612032754
Tunis,ruins,ruins,,,ضريح البونيقية,ضريح البونيقية,36.42016605,9.22018225,57.22277520706528
Tunis,ruins,ruins,,,معبد منيرفا,معبد منيرفا,36.425793961517435,9.216970652388161,219.52084755444653
Tunis,ruins,ruins,,,كبيتول,كبيتول,36.422840259060784,9.218165014413312,420.2531429768904
Tunis,ruins,ruins,,,كنيسة فيكتوريا,كنيسة فيكتوريا,36.42510433991653,9.221087766199256,218.8206558313244
Tunis,ruins,yes,,,صهاريج,صهاريج,36.4250038777412,9.21738286059512,1482.8260802487143
Tunis,ruins,ruins,,,Licinian baths,,36.423643317637584,9.219591958639269,1221.209966707942
Tunis,ruins,ruins,,,معبد زحل,معبد زحل,36.425553370233985,9.220483757896842,1380.0473158847747
Tunis,ruins,ruins,,,صهاريج,صهاريج,36.421272437496825,9.216939113388781,776.7181926934887
Tunis,ruins,ruins,,,صهاريج عين الحمام,صهاريج عين الحمام,36.423495200000005,9.216523650000001,930.5168339239603
Tunis,ruins,ruins,,,حمامات,حمامات,36.42077304143912,9.217182269800348,2692.6284273899037
Tunis,ruins,ruins,,,مسرح,مسرح,36.42370804564243,9.220261213417206,2944.546725966605
Tunis,ruins,,,,,,36.60618351953544,10.175579963061463,9922.526102086653
Tunis,ruins,,,,,,36.60244167381495,10.177457945346218,1645.3255742580893
Tunis,ruins,,,,,,36.60799838659025,10.171000742374082,1120.639459366187
Tunis,ruins,,,,,,36.60464890498383,10.17359730714087,1342.1578560950336
Tunis,ruins,,,,,,36.603701467411675,10.17420214576308,1090.2147175792732
Tunis,ruins,,,,,,36.607668916039195,10.172694204885111,1034.6000983596532
Tunis,ruins,,,,,,36.608849467230876,10.172037190132954,2126.625055665697
Tunis,ruins,,,,,,36.60818578665445,10.172122924368205,2224.9052942037433
Tunis,ruins,,,,,,36.60479577045118,10.172521080242333,4691.713154698082
Tunis,yes,yes,,,برج الهوارية,برج الهوارية,37.048940829023834,11.070639443359129,364.32480095297853
Tunis,ruins,,,,,,37.05564654286904,10.055332003504565,12562.617503155065
Tunis,archaeological_site,,,,أوتيك,عُتيقة,37.056020198996265,10.059471610662985,714513.5823512353
Tunis,ruins,,,,,,37.05662617268525,10.062116153954712,8180.920192170693
Tunis,,yes,,museum,Musée national d'Utica,,37.050662571949914,10.056942096234918,99.96807332939227
Tunis,ruins,,,,,,37.05256712195195,10.057327067164644,4028.6217260686835
Tunis,,,place_of_worship,,,,36.716114767861136,10.726520859356741,12853.642350635619
Tunis,,yes,place_of_worship,,الكنيسة الأرتودكسية اليونانية,الكنيسة الأرتودكسية اليونانية,36.800661370767685,10.178849392797726,358.67752298211053
Tunis,,yes,place_of_worship,,كاتدرائية تونس,كاتدرائية تونس,36.80011088152627,10.178925282404387,2062.9176143209465
Tunis,,yes,place_of_worship,,Mosquée Eltabek,,36.877960899841575,10.314032807879888,2167.708658827661
Tunis,,,,museum,المتحف الأقيانوسي «دار الحوت» بصلامبو,المتحف الأقيانوسي «دار الحوت» بصلامبو,36.84355161493672,10.326281844471215,17239.038392312676
Tunis,,yes,place_of_worship,,,,36.84083556849406,10.20537298540151,1703.2798420844401
Tunis,,yes,place_of_worship,,,,36.76874897738893,10.237992914435416,1810.8469850365143
Tunis,,yes,,museum,قصر سعيد,,36.81141368760376,10.129513201940055,4551.590957375838
Tunis,,yes,,museum,متحف الحديقة الوطنية بإشكل,متحف الحديقة الوطنية بإشكل,37.138358490525945,9.692660630582086,384.63582964318954
Tunis,,,place_of_worship,,Mosquée El Ghazeli,,35.84646780097729,10.61604183388238,4228.636978071018
Tunis,,yes,place_of_worship,,,,36.8643544492355,10.1994520304037,1963.6523553294012
Tunis,,,,museum,مدينة العلوم,مدينة العلوم,36.84827924218163,10.188827990982222,60692.004057962615
Tunis,,,place_of_worship,,جامع الصبح,جامع الصبح,36.84850060565214,10.195163845609848,3334.7110925372654
Tunis,,,place_of_worship,,,,36.87809003323275,10.266458747032898,1221.0798406582296
Tunis,yes,train_station,,,محطة تونس للشحن,محطة تونس للشحن,36.79296968173353,10.188884699058708,1038.643319928049
Tunis,city_gate,yes,,,باب بحر,باب بحر,36.79917740130404,10.175618079614866,133.35604544469763
Tunis,,yes,place_of_worship,,,,36.7917146512053,10.170024257630397,1277.445451114961
Tunis,city_gate,yes,,attraction,باب الجديد,باب الجديد,36.7924528,10.1711282,218.09255915408238
Tunis,,,place_of_worship,,جامع الهواء,جامع الهواء,36.79276465779309,10.165175574565739,2273.9477359934654
Tunis,,mosque,,,,,36.79272280310886,10.165245649446831,1281.462932979554
Tunis,,yes,place_of_worship,,,,36.80602247177238,10.16799769807658,527.7243123156319
Tunis,,mosque,place_of_worship,,جامع الفتح,جامع الفتح,36.80793819237213,10.180651275986378,2763.547533247286
Tunis,church,yes,police,,,,36.80728085,10.173825849999998,417.16206281864106
Tunis,,yes,place_of_worship,,,,36.82329210407364,10.153467768469305,622.6270313971863
Tunis,,yes,place_of_worship,,,,36.8373345515483,10.194375221506771,1763.79876810621
Tunis,,,place_of_worship,,جامع التوبة,جامع التوبة,36.82889295253778,10.192662062571948,3927.6491432782714
Tunis,archaeological_site,,,,Mactaris,,35.853960696952704,9.207444847055491,220085.2867044894
Tunis,,yes,place_of_worship,,,,35.806675435683125,10.651277104654696,883.7922873764089
Tunis,,mosque,place_of_worship,,,,36.31403609352762,10.210924883019702,219.67238354204028
Tunis,ruins,,,,الزريبة العليا,الزريبة العليا,36.31428888788189,10.209891054939883,47832.517036043624
Tunis,building,yes,,,,,36.31490054064641,10.209345012598599,41.00535218320397
Tunis,building,yes,,,,,36.314967312305924,10.209474810538465,39.95728043559997
Tunis,,,place_of_worship,,الجامع الكبير,الجامع الكبير,35.743035405474025,10.701694688735646,1590.1974853371082
Tunis,,museum,,museum,Ecomuseum,,36.72634509070449,10.32973049264078,329.89233700867237
Tunis,,yes,place_of_worship,,Mosquée Hamza,,35.85391704945656,10.600372757246745,1674.034737438953
Tunis,,mosque,place_of_worship,,جامع إبراهيم الخليل المنار 1,جامع إبراهيم الخليل المنار 1,36.83732615897043,10.140227334904356,2278.946057605503
Tunis,,,place_of_worship,,,,35.87560891208575,10.566012962638714,637.4946932808457
Tunis,,,place_of_worship,,جامع مقرين جوهرة,جامع مقرين جوهرة,36.776294878797245,10.22579157421629,814.7775276689697
Tunis,,mosque,place_of_worship,,مسجد سيدي رزيق,مسجد سيدي رزيق,36.766266848982234,10.248623333474502,1750.9564113570057
Tunis,,,place_of_worship,,,,36.33479626409534,10.088199589839945,222.23859504962616
Tunis,,yes,place_of_worship,,,,35.76077657510445,10.822055909228238,941.8674228178153
Tunis,,yes,place_of_worship,,Jemaa El Tawba,,35.85963315301533,10.59927404699915,1274.7566231656456
Tunis,,yes,place_of_worship,,,,36.894074351558984,10.29785611563508,792.0817592996375
Tunis,ruins,yes,,,,,36.92528607593754,9.056949395235804,92.30635684735826
Tunis,ruins,yes,,,,,36.91707874619447,9.074008175176873,80.75506462026974
Tunis,ruins,yes,,,,,36.92529182366618,9.056781452939235,57.71991039359193
Tunis,ruins,yes,,,,,36.91427347089974,9.076719704283345,58.96493624965689
Tunis,ruins,yes,,,,,36.92525361530526,9.056228973188963,116.29483673399076
Tunis,ruins,yes,,,,,36.925000100000005,9.05653465,62.159642924288335
Tunis,ruins,yes,,,,,36.92528872166719,9.056872297639664,286.2714562776892
Tunis,,yes,place_of_worship,,,,36.937243300000006,9.3595364,368.6010798167939
Tunis,,yes,place_of_worship,,,,36.725143891006,9.182777117657837,2344.9254167605905
Tunis,,yes,place_of_worship,,,,36.737033427520636,9.175038319905903,1446.1868126775205
Tunis,,yes,place_of_worship,,,,35.86925719013633,10.534825024753854,876.87861894978
Tunis,,yes,place_of_worship,,,,36.13136103090784,10.37114402999078,3389.6049145170164
Tunis,ruins,,,,كاتدرائية بئر فتوحة,كاتدرائية بئر فتوحة,36.868003937356924,10.325963370320284,2677.460609513654
Tunis,ruins,,,,كاتدرائية بئر فتوحة,كاتدرائية بئر فتوحة,36.868003937356924,10.325963370320284,2677.460609513654
Tunis,ruins,,,,كاتدرائية مايورم,كاتدرائية مايورم,36.86734908316505,10.333939716646528,5953.02508555934
Tunis,ruins,,,attraction,Basilique de Damous el Karita,,36.86145602560006,10.331079951737872,11396.129337367258
Tunis,ruins,,,attraction,مقابر البونية,مقابر البونية,36.854907750026534,10.332261619285397,3888.014228949911
Tunis,ruins,,,attraction,أوديون,أوديون,36.85870810711286,10.330484417137624,4067.1661602028234
Tunis,archaeological_site,,,,أوديون,أوديون,36.85878646519684,10.33044196084577,22450.746086691874
Tunis,archaeological_site,,,,خزانات برج الجديد,خزانات برج الجديد,36.85691520490238,10.334642947232917,8371.592678547337
Tunis,ruins,,,attraction,حمامات أنطونيس,حمامات أنطونيس,36.8544256825801,10.33510516727219,16397.83197603866
Tunis,archaeological_site,,,,توفاة قرطاج,توفاة قرطاج,36.841415410867306,10.323067412928127,4892.5728893881205
Tunis,ruins,,,attraction,فيلات رومانية,فيلات رومانية,36.85772972693199,10.331920026113266,1861.3654264724573
Tunis,archaeological_site,,,attraction,الفيلات الرومانية,الفيلات الرومانية,36.85776964565337,10.331608895050683,45472.477540631815
Tunis,ruins,,,attraction,فيلات رومانية,فيلات رومانية,36.857241993920816,10.331547817175048,2696.1436309410637
Tunis,ruins,,,,فيلات رومانية,فيلات رومانية,36.85790618834925,10.331489347138234,1241.2494463246858
Tunis,archaeological_site,,,,Îlot de l'Amirauté,,36.844888402626545,10.325694205587059,18982.79894414668
Tunis,,yes,place_of_worship,,,,35.69824006572117,10.782107305457144,690.3863917143935
Tunis,,yes,place_of_worship,,,,35.76207306581718,10.304806929574843,74.84594721153196
Tunis,,yes,place_of_worship,,,,35.75653697431376,10.590468139812502,924.7253501991133
Tunis,,,place_of_worship,,,,36.94444130914585,10.173478556530949,1900.2457014832362
Tunis,,,place_of_worship,,,مسجد,37.10146342632092,10.094451849757645,1846.9114466329836
Tunis,,,place_of_worship,,Mosquée du Lac,,36.83799237543042,10.238312491273359,6168.372846097294
Tunis,,mosque,,,,,36.83804629158649,10.23833670130468,1746.6968468896757
Tunis,,yes,place_of_worship,,,,35.70704767488532,10.675384443382903,371.891518442402
Tunis,,yes,place_of_worship,,مقام الولي الصالح سيدي عامر,مقام الولي الصالح سيدي عامر,35.74278940549511,10.700083290824317,963.5441249307687
Tunis,,yes,place_of_worship,,,,35.789549501428596,10.626855932107127,911.970898250927
Tunis,,,place_of_worship,,,,35.79060045048675,10.585488693741583,5093.45652734261
Tunis,,yes,place_of_worship,,,,35.842659100000006,10.61807735,210.69213559479422
Tunis,,,place_of_worship,,,,35.73870229051423,10.58441452436948,4426.613829533211
Tunis,,yes,place_of_worship,,,,35.6772191334414,10.506438659119972,608.4401304352126
Tunis,,yes,place_of_worship,,جامع الفتح,جامع الفتح,35.78063849089445,10.806192087759536,543.6353510962256
Tunis,,yes,place_of_worship,,,,35.7311509426518,10.573825018320463,502.4153238978803
Tunis,,,place_of_worship,,جامع مالك بن أنس,جامع مالك بن أنس,36.85913244758031,10.328728495557627,33622.787023791556
Tunis,,yes,place_of_worship,,,,36.86997115232756,10.140096435359917,373.24025553449087
Tunis,,yes,place_of_worship,,,,36.86997115232756,10.140096435359917,373.24025553449087
Tunis,,mosque,place_of_worship,,,,35.73463675331591,10.573241227144095,883.9823403568826
Tunis,,mosque,place_of_worship,,,,35.82169033545604,10.565932183726778,2126.7373435020713
Tunis,,mosque,place_of_worship,,,مسجد,35.850136813230755,10.583527524496064,1755.0247258889367
Tunis,,mosque,place_of_worship,,Mosquée De Sidi Bou Said,,36.871033990343044,10.348652405081951,366.2663982396919
Tunis,,,place_of_worship,,جامع السلام,جامع السلام,36.86009136944713,10.163615936650334,2249.691350757542
Tunis,ruins,,,,,,36.87350332877348,10.347131998870227,186.80300530406706
Tunis,castle,,,attraction,Forteresse de Kélibia,برج قليبية,36.837711932732894,11.115832862972093,15974.138686101032
Tunis,ruins,ruins,,,,,36.85760694783778,10.31655429722319,151.6790470928964
Tunis,,,place_of_worship,,Mosquée Al Hideya,,36.774466289751295,10.276305594577298,5108.612127954268
Tunis,city_gate,yes,,,باب الخضراء,باب الخضراء,36.80920486837682,10.173674124693273,95.85869354819978
Tunis,building,hotel,,,Ksar Ouled Dabbab,,32.86949717514661,10.38236856506603,3729.1643893360783
Tunis,castle,,,,Ksar Ouled Debbab,,32.86944611167433,10.382367518735933,12340.408603108595
Tunis,,,place_of_worship,,,,36.83962288848464,10.039408361109771,2229.719824545494
Tunis,,yes,place_of_worship,,,,36.78413639999999,9.9468131,598.7793550501775
Tunis,ruins,,,,,,36.860934335852775,10.330070224535723,13.217231326687948
Tunis,ruins,,,,,,36.8608538056662,10.32992414502871,13.230745597761805
Tunis,,yes,place_of_worship,,جامع المديوني,جامع المديوني,35.688582499145156,10.842709824083489,2006.9866997314798
Tunis,,,place_of_worship,,جامع التقوى,جامع التقوى,36.87453339963751,10.209808422134317,1014.6484807571679
Tunis,ruins,,,,Nymphée romain d'Aïn Jouggar,,36.254882,9.9444978,499.731744828255
Tunis,,,place_of_worship,,جامع الهادي نويرة,جامع الهادي نويرة,36.86826568831785,10.19873486129021,1044.0889222761318
Tunis,,yes,place_of_worship,,مسجد الغفران,مسجد الغفران,33.86835739890123,10.112747359491522,560.3478507999155
Tunis,,,place_of_worship,,مسجد حي بن خلدوم,مسجد حي بن خلدوم,33.86001094894939,10.11252360610208,1992.6477160595184
Tunis,,,place_of_worship,,مسجد الهدى,مسجد الهدى,33.86776216500109,10.125829616177239,1623.2817247543799
Tunis,,,place_of_worship,,مسجد المنارة,مسجد المنارة,33.84840515898799,10.107664130664851,1365.8020262021087
Tunis,,yes,place_of_worship,,,,33.88768026346696,10.090511225117824,639.6327073202349
Tunis,,,place_of_worship,,,,33.884925558916834,10.089123362808609,442.3121318579359
Tunis,,,place_of_worship,,,,33.85953791581977,10.116312522633807,1752.0813783680815
Tunis,,yes,place_of_worship,,,,33.88467880718622,10.10640169355661,487.07852777119393
Tunis,,,place_of_worship,,,,33.86297051245281,10.10650396332288,3373.5068779484523
Tunis,,yes,place_of_worship,,مسجد زريق,مسجد زريق,33.85764827081521,10.10185241663602,576.4782998012938
Tunis,,,place_of_worship,,,,36.92639995980765,10.13754166998039,910.5592509929361
Tunis,,,place_of_worship,,,,35.22633972506295,9.130899193689551,2381.7411753467427
Tunis,castle,,,,قصر قبة النحاس,قصر قبة النحاس,36.808622313162154,10.094762282956209,36704.28608635141
Tunis,,,place_of_worship,,جامع الخير بأريانة الصغرى,جامع الخير بأريانة الصغرى,36.90092335544731,10.186259292619006,1654.7999257112228
Tunis,,yes,place_of_worship,,,,36.879041873508015,10.175035577010332,439.72105434118737
Tunis,,,place_of_worship,,مسجد التقوى,مسجد التقوى,36.86344139281406,10.178149601243836,1808.323291680651
Tunis,ruins,,,,,,37.16925828266576,10.19279981466666,475.8538668795278
Tunis,,mosque,place_of_worship,,Mosquée El Hammam,,36.34301003918796,10.201240369047447,253.8169975706087
Tunis,,,place_of_worship,,,,36.95672074649692,10.19552196641837,2142.3158388808615
Tunis,archaeological_site,,,,Tubernuc,,36.53290974741771,10.456183252500953,43151.8325884039
Tunis,,,place_of_worship,,مسجد الحمد,مسجد الحمد,33.98341468950176,9.95927509267866,824.1532305772762
Tunis,,,place_of_worship,,مسجد السوق,مسجد السوق,33.987317677599535,9.97023308222813,767.3049203470373
Tunis,,,place_of_worship,,مسجد خيرالدين,مسجد خيرالدين,33.98404547591219,9.96443134469859,352.22840140778163
Tunis,,,place_of_worship,,جامع السلام,جامع السلام,33.97978388858534,9.97726860219164,2461.1436414244445
Tunis,,,place_of_worship,,جامع القاراج,جامع القاراج,33.984649944543555,9.97297342805479,299.7771747972937
Tunis,,,,museum,Musée des Arts et Traditions Populaires,,36.18275989872672,8.715326866539439,427.70286321055966
Tunis,,,place_of_worship,,,,36.16578182037149,8.690771432128772,584.6506558797411
Tunis,,yes,place_of_worship,,مسجد الفوز,مسجد الفوز,33.984328687376674,9.98086666881963,713.5030629442488
Tunis,,mosque,,,Mosquée du Bey,,36.81002808894098,10.135082926282376,2236.4087532073377
Tunis,,,,museum,متحف الذاكرة الوطنية بالسيجومي,متحف الذاكرة الوطنية بالسيجومي,36.77221627343717,10.171681234172397,138878.5234828651
Tunis,ruins,,,,برج زوارة,برج زوارة,36.80683282310172,10.153353019075542,4912.468204941327
Tunis,,mosque,,,,,35.035151046380165,9.475373071248896,1150.9042893823876
Tunis,,yes,place_of_worship,,Sidi Bouhlel,,34.03491544512247,8.280728632700745,525.2243978923632
Tunis,,yes,place_of_worship,,جامع سيدي جمور,جامع سيدي جمور,33.83145126903502,10.748079093977054,629.1597174065386
Tunis,,yes,place_of_worship,,كنيسة القديس جان دارك,كنيسة القديس جان دارك,36.819015880208745,10.180756088786406,600.3959741260139
Tunis,,yes,place_of_worship,,,,36.81886912823395,10.191189108305657,1091.3987785935547
Tunis,,yes,place_of_worship,,,,36.7511142127621,10.224891134282757,2205.2898139434888
Tunis,,mosque,place_of_worship,,مسجد قلالة,مسجد قلالة,33.7223743544521,10.844315407248397,132.494167092999
Tunis,,yes,place_of_worship,,كنيسة القديس يوسف,كنيسة القديس يوسف,33.87818828618656,10.85830271987485,348.3564399146226
Tunis,castle,yes,,,حصن الجينوي طبرقة,حصن الجينوي طبرقة,36.965212763171756,8.758652068843979,3341.978353258306
Tunis,,yes,place_of_worship,,جامع المغفرة,جامع المغفرة,34.800312019270805,10.768072561557354,1197.3048972805907
Tunis,ruins,yes,,attraction,قصر غيلان,قصر غيلان,33.008635961553075,9.61620968385714,1000.7911471378785
Tunis,,,place_of_worship,,Mosquée ERRAHMA,,36.719697361596246,10.221806935138336,711.8153016546636
Tunis,,,place_of_worship,,جامع المكارم,جامع المكارم,35.21621233161273,9.6072827965925,1520.5145662777747
Tunis,,yes,place_of_worship,attraction,مسجد الرقود السبعة,مسجد الرقود السبعة,32.9098499530049,10.27497234404173,177.05284748132416
Tunis,,,,museum,Musée Memoire de la Terre Tataouine,,32.91765390127487,10.415243073268499,1111.3433714963262
Tunis,,yes,place_of_worship,,,,32.98570435696605,10.25133080058415,160.44884577344735
Tunis,ruins,yes,,,Ksar Tarcine,,33.21611815579582,9.800343085612548,212.09042319732367
Tunis,building,yes,,,Ksar El Bhira,,33.31820777909639,10.22500023324275,1208.3249031967011
Tunis,building,yes,,,Ksar El Bhira,,33.31866970466093,10.22529526073288,837.5305668477898
Tunis,building,yes,,,Ksar El Bhira,,33.318739370816616,10.224734192018488,82.08995971998408
Tunis,building,yes,,,Ksar El Bhira,,33.31874371769434,10.224574415498457,40.15308227694169
Tunis,building,yes,,,Ksar El Bhira,,33.318744983008855,10.22438065189284,120.47605852072752
Tunis,,,place_of_worship,,,,36.37108336999197,9.558013340083413,706.679069275169
Tunis,,,place_of_worship,,,,36.3776241742399,9.450979942710388,3117.4875479206457
Tunis,,yes,place_of_worship,,,,36.35409487139791,9.389850310885585,428.2446336547804
Tunis,,,place_of_worship,,جامع النور,جامع النور,36.07756123342564,9.022059646640242,1940.798694967399
Tunis,,,place_of_worship,,,,36.16215472207894,8.712120251843487,755.2562326901789
Tunis,ruins,yes,place_of_worship,,Basilique Saint-Pierre du Kef,Dar El Kous,36.179494550758186,8.713143411771451,542.0535615631235
Tunis,castle,,,,القصبة,القصبة,36.18235145267002,8.712993248873257,18754.97467945574
Tunis,ruins,,,,la Kasbah,,36.18164136882018,8.712284361429013,172.908616053645
Tunis,,,place_of_worship,,,,35.94807382238049,8.833310238555573,3109.5997002214635
Tunis,,,place_of_worship,,عمر ابن الخطاب,عمر ابن الخطاب,36.75703607776592,10.18307579448024,3498.2467501181413
Tunis,,yes,place_of_worship,,جامع السلام,جامع السلام,36.34020533685236,10.249334309849543,1498.4008644975877
Tunis,,mosque,place_of_worship,,مسجد السلام,مسجد السلام,36.33867987478152,10.251553342651901,2132.945253539852
Tunis,ruins,,,,,,36.60526120176838,10.174239419014613,1495.2952094271013
Tunis,,mosque,,,,,36.693641957937686,10.388140029122518,908.6214057348383
Tunis,,,place_of_worship,,,,36.69371971694012,10.388050161467195,2160.5918770514386
Tunis,,mosque,place_of_worship,,,,36.86373230090508,10.304693876035742,1485.27251151892
Tunis,,mosque,,,,,36.88245108184044,10.331504266017271,1268.2383308315086
Tunis,,mosque,,,,,36.88254763562685,10.330916467453358,136.96046464653074
Tunis,,,place_of_worship,,,,34.96383605617058,9.315528765861002,3028.9588119393547
Tunis,archaeological_site,,,,Ksar Lemsa,,36.03589025161121,9.69197813945778,11538.210001029582
Tunis,ruins,,,,Cisternes Romaines,,36.18080935737944,8.710096156958185,606.7759385528075
Tunis,ruins,,,,Temple des Eaux,,36.18039516073758,8.70998714995142,2337.738778106603
Tunis,ruins,,,,Dar el Kahia,,36.18080873107176,8.709655140790513,420.6971476423996
Tunis,,yes,place_of_worship,,سيدي علي التركي,سيدي علي التركي,36.180930147781744,8.713621674062846,314.6991245339507
Tunis,,,place_of_worship,,Synagogue,,36.18034195,8.71385715,167.69436196440995
Tunis,ruins,,,,Bulla Regia,,36.55666509005825,8.75471684421148,12091.190367805844
Tunis,ruins,,,,Citernes,,36.556887599999996,8.752438699999999,664.0051736629721
Tunis,ruins,,,,Grands Thermes sud,,36.55595738762084,8.752846959009068,3729.198178577832
Tunis,ruins,,,,Monument en opus reticulatum,,36.556806479969836,8.753085915289876,189.590544175466
Tunis,,yes,,museum,Musée de Bulla Regia,,36.5565404409421,8.754470800701709,195.42241071162258
Tunis,ruins,,,,Église d’Alexander,,36.55559867937174,8.752405126102312,457.94736704076684
Tunis,ruins,,,,Basilique,,36.55966203280156,8.756135905887987,629.4435679182637
Tunis,ruins,,,,Basiliques chrétiennes,,36.55887794016942,8.752897791127914,410.0933804329443
Tunis,ruins,,,,Constructions non identifiées,,36.55927596150297,8.75622934663692,689.6971422909292
Tunis,ruins,yes,,,Fort byzantin,,36.55777083193474,8.75227480666497,511.59009286668294
Tunis,ruins,,,,House of treasure,,36.558364605610095,8.753871324736918,211.55120713998326
Tunis,ruins,,,,Forum,,36.55958129366276,8.755797607316252,1001.6687780468064
Tunis,ruins,,,,Insula de la maison no 1,,36.55985813650572,8.75353366470511,883.4746255606927
Tunis,ruins,,,,Maison ?,,36.557428769296074,8.754840914604198,337.787667192836
Tunis,ruins,,,,Maison de la nouvelle chasse,,36.560457599548556,8.753069166241067,518.4721242084665
Tunis,ruins,,,,Maison no 10,,36.56040137833361,8.753699582126547,579.2165936776177
Tunis,ruins,,,,Maison no 15,,36.5614888033191,8.753175727890016,387.7033535294697
Tunis,ruins,,,,Maison no 2,,36.5594243,8.753202600000002,390.2298913914447
Tunis,ruins,,,,Maison no 3,,36.55921933893575,8.754510395566072,1040.5652771889268
Tunis,ruins,,,,Maison no 4,,36.55898857876259,8.755663017213942,600.1222978622652
Tunis,ruins,,,,Maison no 5,,36.55917764309817,8.755506136931395,618.4248614361572
Tunis,ruins,,,,Maison no 7,,36.55871109354914,8.753204705098684,401.56484348005813
Tunis,ruins,,,,Maison no 8,,36.56048141157778,8.75409117957204,592.7966760076936
Tunis,ruins,,,,Maison no 9,,36.560526303101355,8.753562903856324,359.46285620100167
Tunis,ruins,,,,Maisons no 11 à 14,,36.5603222,8.754246750000002,793.0139481333736
Tunis,ruins,,,,Mur de soutènement,,36.55833612753896,8.757282065413404,454.109905982692
Tunis,ruins,,,,Nymphée,,36.56046431552774,8.75489231454947,283.6678076620124
Tunis,ruins,,,,Première esplanade monumentale,,36.5585788,8.757289499999999,2574.6819811551786
Tunis,ruins,,,,Péristyle de maison,,36.55812467524106,8.754078206947971,117.58669884380478
Tunis,ruins,,,,Temple d’Isis,,36.55863896601411,8.756672349513867,613.517074068187
Tunis,ruins,,,,Temples,,36.55769665,8.753738999999998,530.2560694360243
Tunis,ruins,,,,Thermes au nord-ouest du théâtre,,36.55898795406392,8.756506014684957,1231.4415940724193
Tunis,ruins,,,,Thermes du nord-est,,36.56182797346913,8.754382420194071,195.99092223013477
Tunis,ruins,,,,Tombes,,36.56064443695633,8.75348967294739,358.1170300595053
Tunis,ruins,,,,Édifice de Diane,,36.55772437165258,8.75472259959056,282.84659717202265
Tunis,ruins,,,,,,36.56018565211373,8.753664833048225,367.6950713098491
Tunis,ruins,,,,,,36.55903050000001,8.752835950000001,409.01546377243744
Tunis,ruins,,,,,,36.55866111495027,8.752358262057422,114.28593743681935
Tunis,ruins,,,,,,36.5610427,8.75415655,45.203587595921384
Tunis,ruins,,,,,,36.559156780917625,8.755913047462107,691.0328091727791
Tunis,ruins,ruins,,,مسرح روماني,مسرح روماني,36.423964521498206,9.217514088770187,1354.807398759135
Tunis,ruins,ruins,,,قوس سيفار الكسندر,قوس سيفار الكسندر,36.42325757682678,9.2168620731895,40.31802806225209
Tunis,ruins,,,,عين الدورة,عين الدورة,36.42035155495276,9.217262197407514,1304.4983538396475
Tunis,ruins,ruins,,,حمامات حرارية,حمامات حرارية,36.42201625234787,9.219046259421676,1512.2177369703163
Tunis,archaeological_site,,,,دقة,,36.42332212286943,9.218816309782465,232036.05745647725
Tunis,ruins,ruins,,,ضميمة من العصور القديمة المتأخرة,ضميمة من العصور القديمة المتأخرة,36.425421524208836,9.218600505700188,4276.696277813051
Tunis,ruins,ruins,,,مضمار,مضمار,36.426575056195496,9.215624233531342,1283.0359993505283
Tunis,ruins,ruins,,,"منزل ""أومنيا تيبي فيليسيا""","منزل ""أومنيا تيبي فيليسيا""",36.421838135932006,9.218620572918448,493.58874032025255
Tunis,ruins,ruins,,,Maison de Dionysos et d'Ulysee,,36.42138947699905,9.218498188857502,617.5310915965067
Tunis,ruins,ruins,,,بيت غورغون,بيت غورغون,36.42063917383098,9.220246114443059,2488.324594366899
Tunis,ruins,ruins,,,منزل التريفليوم,منزل التريفليوم,36.42148611972856,9.21995428416468,1458.9761293594518
Tunis,ruins,ruins,,,بيت فينس,بيت فينس,36.42202184324602,9.2176775350715,383.748916473106
Tunis,ruins,ruins,,,بيت الفصول,بيت الفصول,36.42238103410041,9.220533021542105,370.25135076442564
Tunis,ruins,ruins,,,مراحيض,مراحيض,36.42177886893533,9.220374210899141,39.71813992998529
Tunis,ruins,ruins,,,سوق,سوق,36.42246600805842,9.218512292673744,926.0337050432755
Tunis,ruins,,,,معبد أغسطس,معبد أغسطس,36.42288574674161,9.218729265876535,47.324951086490664
Tunis,ruins,ruins,,,معبد كنكورديا,معبد كنكورديا,36.42244680373523,9.219039167591353,233.27897326980985
Tunis,ruins,ruins,,,معبد بورتونس,معبد بورتونس,36.42272745714389,9.218819273474933,106.34158367871693
Tunis,ruins,ruins,,,معبد مركوريس,معبد مركوريس,36.422931819683676,9.218374814657237,79.43992901423948
Tunis,ruins,ruins,,,معبد منيرفا,معبد منيرفا,36.42563011497304,9.217154202412456,1980.0693636106641
Tunis,ruins,ruins,,,معبد نبتون وسرداب,معبد نبتون وسرداب,36.42497365430603,9.220735530164959,101.36769120640501
Tunis,ruins,ruins,,,معبد تيلس,معبد تيلس,36.422212393358464,9.21834358027715,240.5904924203231
Tunis,ruins,ruins,,,معبد النصر من كركلا,معبد النصر من كركلا,36.4220349,9.21742385,644.0724668614369
Tunis,ruins,ruins,,,,,36.42134718987062,9.220855167803341,766.0725209281131
Tunis,archaeological_site,,,,Dougga Archaeological Park,,36.423524203082124,9.218660943583096,199959.41039912656
Tunis,ruins,,,,,,36.42220305142923,9.218492079198258,38183.95909483855
Tunis,ruins,,,,Amphithéatre Mactaris,,35.85582793023618,9.206279009414255,753.6445686575642
Tunis,ruins,ruins,,,Temple à crypte,,35.85328597577336,9.206989095290245,257.8621495005512
Tunis,ruins,ruins,,,Arc de Trajan,,35.85334947640739,9.207949065810448,40.509064967880114
Tunis,ruins,ruins,,,Basilique d'Hildeguns,,35.8530094517274,9.208068285100689,1151.1780533264612
Tunis,ruins,ruins,,,Basilique à péristyle,,35.8525234404272,9.206236078131733,739.4352802974232
Tunis,ruins,ruins,,,Tour byzantine,,35.85327717472356,9.207950160771986,54.65369960647145
Tunis,ruins,ruins,,,Thermes du Capitole,,35.85381349923714,9.205764653073963,1406.6231250963874
Tunis,ruins,ruins,,,Capitole,,35.85324868382742,9.205346971557447,1796.2331192474799
Tunis,ruins,ruins,,,Nécropole chrétienne,,35.85208114358866,9.205698697115468,64.94512453332257
Tunis,ruins,ruins,,,Forum,,35.85364236093449,9.207958156526704,2647.6193188258076
Tunis,ruins,ruins,,,Forum Numide,,35.853005490485174,9.206737759870098,2267.2708993262418
Tunis,ruins,ruins,,,Grand Thermes,,35.85185283322245,9.208534381484732,4105.5422572494135
Tunis,ruins,ruins,,,Mégalithes,,35.85222630000001,9.20553285,106.43782194899363
Tunis,ruins,ruins,,,Monument de Julius Pison,,35.85206679764278,9.20586467044365,96.71963257376443
Tunis,,museum,,museum,Musée de Maktaris,,35.8559982706522,9.206387667111525,265.3061869916993
Tunis,ruins,ruins,,,Schola des Juvenes,,35.85233067547086,9.20574996098899,146.63238627115257
Tunis,ruins,ruins,,,Temple d'Hathor Miskar,,35.85459410694588,9.209082290560794,515.9221992409505
Tunis,ruins,ruins,,,,,35.85459506215716,9.206189630273823,1278.210730627618
Tunis,ruins,ruins,,,,,35.85353386938163,9.206341739669792,1524.0240809666425
Tunis,ruins,ruins,,,,,35.85426305,9.2064866,327.7329806647652
Tunis,ruins,ruins,,,,,35.85401629328683,9.208185001413693,429.89048400228853
Tunis,ruins,,,,,,35.85242381284654,9.206032137992494,5355.591916833741
Tunis,ruins,ruins,,,,,35.85467650834405,9.209429606723347,2376.1701084829574
Tunis,yes,,marketplace,,,,33.455344632042916,9.024875413378723,12254.933622831031
Tunis,,yes,place_of_worship,,Mosquée Fatima Ez-Zahra,,35.84248125379852,10.587979488592778,1659.4307626375676
Tunis,,yes,place_of_worship,,,,34.42856396582682,8.779075844099715,1425.0466336893255
Tunis,,yes,place_of_worship,,,,34.39956953070147,8.799132804014556,598.5452679170088
Tunis,,mosque,place_of_worship,,,,34.40358467215799,8.797094873871249,103.03484881207434
Tunis,,mosque,place_of_worship,,,,34.40375295,8.797366549999998,73.68711732050905
Tunis,,mosque,place_of_worship,,,,34.403812699999996,8.796705750000001,114.99453894979959
Tunis,,yes,place_of_worship,,,,34.25250147961262,8.7497220185024,97.788453958564
Tunis,,yes,place_of_worship,,مسجد خيط الواد,,35.70712401228346,9.63287731553231,189.25764832574393
Tunis,archaeological_site,,,attraction,Old Mides,ميداس القديم,34.4065581187469,7.920542808663007,22328.069521033816
Tunis,,,place_of_worship,,Mosquée lHANIN,,33.45458556072597,9.024248917457449,360.6640954192018
Tunis,,yes,place_of_worship,,,,34.7854994,8.38185295,99.29860917227478
Tunis,,yes,place_of_worship,,,,34.72311645360434,8.355901731394571,110.32323131297991
Tunis,,yes,place_of_worship,,,,34.75123296468039,8.521711118022418,351.6392935216727
Tunis,,yes,place_of_worship,,,,34.698095800510636,8.608598216761147,84.74401005260792
Tunis,,yes,place_of_worship,,,,34.678882293987655,8.631673520252157,101.53941104671293
Tunis,,yes,place_of_worship,,,,34.73830405,8.52030265,123.19750632880988
Tunis,,yes,place_of_worship,,,,33.91707376685578,8.122046780626354,468.0425175033713
Tunis,,yes,place_of_worship,,Sidi Ben Abbes,,34.03378543204284,8.283295643738981,237.64789296001743
Tunis,,yes,place_of_worship,,,,34.39543429293212,8.167002344444144,558.4813144023045
Tunis,,yes,place_of_worship,,,,34.29904611754805,8.756303076330004,31.629943372504886
Tunis,,yes,place_of_worship,,,,34.33463660735522,8.952381040333705,325.9415282261773
Tunis,ruins,,,,,,34.386665405621265,9.22559790410353,22321.205418945
Tunis,ruins,,,,,,34.38851776643077,9.225425204470541,4625.053952448079
Tunis,ruins,,,,,,34.38944179060668,9.226049889598746,6607.989607126616
Tunis,ruins,,,,,,34.43297870823926,9.2808840586874,15836.90264028855
Tunis,,yes,place_of_worship,,,,34.463824450000004,9.26545725,50.40321208373851
Tunis,,yes,place_of_worship,,,,34.4640794679517,9.262205094867928,73.92671023872428
Tunis,ruins,,,,,,34.460102112408954,9.263550780394999,2480.7562768976654
Tunis,ruins,,,,,,34.4633538489288,9.260500440262131,7404.764874070383
Tunis,ruins,,,,,,34.465021872441945,9.261724549166416,7341.172699952414
Tunis,ruins,,,,,,34.48354105000001,9.252609849999999,1656.9559910378289
Tunis,,yes,place_of_worship,,,,34.540506449999995,9.2337416,79.27900603709959
Tunis,,yes,place_of_worship,,مسجد حزوة,مسجد حزوة,33.73481941529172,7.589776014834603,528.2507521721482
Tunis,,yes,place_of_worship,,,,30.25022144999999,9.557442999999997,129.37363996088345
Tunis,,yes,,museum,Ghar eI Kébir,,37.0591659252191,10.995437114587135,69.45396433222241
Tunis,,,place_of_worship,,,مسجد,37.04283708140495,11.009598276363207,21484.006760038723
Tunis,,yes,place_of_worship,,جامع سيدي ابو ضاوي,جامع سيدي ابو ضاوي,36.848295549999996,11.09574825,761.0299630888903
Tunis,,yes,place_of_worship,,جامع التقوى,جامع التقوى,36.8461370406242,11.08751843606715,407.7637216304601
Tunis,,yes,place_of_worship,,,,36.843440347568254,11.102060628436806,582.1840812353158
Tunis,,,place_of_worship,,,,36.64382605000001,10.575196000000002,1889.157498312148
Tunis,monument,yes,,museum,Ennejma Ezzahra,,36.86920857873096,10.348210782055398,1456.8246169319405
Tunis,,yes,place_of_worship,,جامع علي ابن أبي طالب,جامع علي ابن أبي طالب (مسجد رام الله),36.83397245,10.317458349999999,307.6695144313981
Tunis,,yes,place_of_worship,,,,36.84252220690781,10.323160270609705,141.07110823407936
Tunis,,construction,place_of_worship,,Mosquée Moustapha Agha,,36.84642313969095,10.318644504423972,382.78599768615834
Tunis,archaeological_site,,,,Henchir el Beldia,,35.92747114973792,9.7129845690552,57924.79465019538
Tunis,ruins,,,,,,36.04718620704626,9.619519872150814,15414.846981391998
Tunis,ruins,,,,,,36.05251553804546,9.641938151344974,16762.85423400308
Tunis,,,place_of_worship,,مسجد الكاتب,مسجد الكاتب,33.796353318457804,10.964370257042088,905.895694511891
Tunis,ruins,,,,,,33.5345327,10.67750645,3698.5510011587558
Tunis,yes,yes,,attraction,Ksar Beni Khedache,,33.25075862425946,10.200295817650199,433.5019706787784
Tunis,ruins,yes,,attraction,قصر حدادة,قصر حدادة,33.10011393247331,10.313992298090366,5986.781286522652
Tunis,,mosque,place_of_worship,,الجامع الكبير,الجامع الكبير,32.933057497982716,10.451952640991738,5373.5710919505855
Tunis,monument,,,,,,32.915708045274,10.426330533153703,296.41914134677825
Tunis,,,place_of_worship,,hy l ber,,32.91877070502197,10.433041056665628,446.419404421232
Tunis,boundary_stone,,,,ELHNYNA,,32.924207925472956,10.458056455863414,5705.675739830749
Tunis,,yes,place_of_worship,,Marabout Sidi Ali El Mekki,,37.17617645925701,10.261218647240694,1535.1147412465311
Tunis,ruins,,,,,,37.17896355,10.277714099999997,14.312492906555958
Tunis,ruins,,,,,,37.17900461400317,10.277500849107758,255.8089694227332
Tunis,,,place_of_worship,,,,32.92214009266961,10.531835091301062,610.1217501034707
Tunis,,mosque,place_of_worship,,مسجد قصر أولاد عبد الواحد,مسجد قصر أولاد عبد الواحد,32.90395120775506,10.524405490791498,235.8684139291335
Tunis,ruins,,,,Ksar Beni Yekhzer,,32.85111228741199,10.578807242573795,20182.1904365036
Tunis,,mosque,place_of_worship,,مسجد الغفران,مسجد الغفران,35.69362463263039,10.401694382717668,749.037565985782
Tunis,,yes,,museum,المتحف الجيولوجي,المتحف الجيولوجي,37.1357548,9.6914066,51.33327566091668
Tunis,archaeological_site,,,,Musée et Monuments du Quartier Sud de Thysdrus,,35.29024996309983,10.70504224985467,23844.606703473106
Tunis,archaeological_site,,,,Ruinas romanas,,35.290425271218375,10.704764560656104,6495.435467052416
Tunis,archaeological_site,,,,,,35.290220185088096,10.707638905977454,17441.86801705792
Tunis,yes,,,,,,35.29641965565806,10.706950135523098,14808.85993752132
Tunis,archaeological_site,,,,Archeological Park,,35.29686025146129,10.70019561538002,52743.37461729197
Tunis,,,place_of_worship,,,,35.34188141934676,10.546254241204958,2228.6753714007664
Tunis,ruins,,,,حصن بيزنطي,حصن بيزنطي,36.52385224318512,9.359632168269897,4518.2890072630225
Tunis,archaeological_site,,,,تيغنيكا,تيغنيكا,36.52389432603781,9.361897268119082,125450.30313377618
Tunis,ruins,,,,Roman Theatre of Thignica,,36.5228170572213,9.362372452560429,1601.9328082020736
Tunis,ruins,,,,,,36.52244997002682,9.36108863927639,1559.148922045604
Tunis,ruins,,,,,,36.52356704172078,9.361633677038746,2835.465358751003
Tunis,ruins,,,,,,36.5237173,9.36271475,375.7994908842578
Tunis,,mosque,place_of_worship,,جامع العقبة,جامع العقبة,35.75164902127768,10.8251276427997,990.1518387285506
Tunis,,yes,place_of_worship,,,,33.53091542668597,11.109850106697898,384.15765032058505
Tunis,,yes,place_of_worship,,Mosquée Essabr,,35.84310717319295,10.598199316161246,1281.24061655262
Tunis,,,place_of_worship,,مسجد عقبة بن نافع,مسجد عقبة بن نافع,36.757949574663606,10.018628897506707,2061.7343215602814
Tunis,,,place_of_worship,,,,35.463739453991046,9.473534506835145,278.37050932344414
Tunis,,mosque,,,,,35.51227428910389,11.033719586869518,377.861364162953
Tunis,,yes,,museum,,,35.81336820188314,9.367105079532728,265.7268901722171
Tunis,archaeological_site,,,attraction,توبربو ماجوس,توبربو ماجوس,36.40080494120278,9.90513711358682,476711.52715708263
Tunis,,yes,place_of_worship,,مسجد الغربة,مسجد الغربة,33.87659976515219,10.860864501381108,2060.325090865836
Tunis,,yes,place_of_worship,,مسجد الشيخ,مسجد الشيخ,33.87765154176117,10.85686687968208,771.5220406421641
Tunis,,yes,place_of_worship,,مسجد سيدي يأتي,مسجد سيدي يأتي,33.706848744490905,10.861676410599966,77.34284341571669
Tunis,,yes,place_of_worship,,جامع الهواري,جامع الهواري,33.85086363808575,10.967609795997719,247.48156412484911
Tunis,,yes,place_of_worship,,جامع الحمد,جامع الحمد,36.78108060178342,10.176905079024536,558.2719775866474
Tunis,archaeological_site,,,,سركيناي - الحديقة الأثرية,,34.711071976872475,11.15308000209464,12095.513384515698
Tunis,,mosque,,,,,34.70535415,11.201852150000002,613.6230108249144
Tunis,,mosque,place_of_worship,,جامع أولاد بوعلي,جامع أولاد بوعلي,34.700600456730896,11.189816614518195,782.1312116991214
Tunis,,mosque,place_of_worship,,جامع العباسية,جامع العباسية,34.720166369358495,11.240693250561117,417.1883449021387
Tunis,,mosque,,,سيدي يوسف,سيدي يوسف,34.65507504987839,10.971996592334719,697.4272797592382
Tunis,,yes,,museum,Jebil National Park,,33.102315206398096,9.060546876032236,506.63305234640285
Tunis,ruins,,,,,,32.40669637292015,9.401292804833165,40.013900749623936
Tunis,ruins,yes,,,قوس النصر سرسي,قوس النصر سرسي,36.16321944999999,9.77414845,28.961395692516355
Tunis,,mosque,place_of_worship,,مسجد عين كميشة,مسجد عين كميشة,36.504951748193854,10.676608570155842,549.4070316960583
Tunis,,,place_of_worship,,جامع سيدي عاشور,جامع سيدي عاشور,36.45503652974002,10.723586083246435,3865.155668898409
Tunis,archaeological_site,,,,الموقع الاثري نيابوليس,الموقع الاثري نيابوليس,36.44033477223889,10.718373399781784,95357.31912516769
Tunis,archaeological_site,,,,Néapolis,,36.43967175203156,10.716909770727357,423.49278289892726
Tunis,ruins,,,,Néapolis,,36.438848111404546,10.717503831926999,1836.1091613869369
Tunis,ruins,,,,Néapolis,,36.44063850924076,10.719361392013907,1741.1453513606177
Tunis,ruins,,,,برج القسطيل,برج القسطيل,33.68349972650259,10.97391696198581,1182.4845614829246
Tunis,ruins,,,,,,35.564788720409304,8.457509757584873,1150.3430407830533
Tunis,ruins,,,,,,35.56459976304648,8.456875383385025,583.7514889116944
Tunis,archaeological_site,,,,المسرح الروماني,المسرح الروماني,35.56651739716307,8.45760623322254,2888.744354486338
Tunis,ruins,,,,,,35.56550839067023,8.460807391273734,1143.7948335445703
Tunis,archaeological_site,,,,القلعة البيزنطية,القلعة البيزنطية,35.56365944679539,8.453937775687084,23290.024277603014
Tunis,ruins,,,,,,35.56672588263234,8.454962963411756,681.1168429639035
Tunis,ruins,,,,,,35.56632367043782,8.45510089015374,2143.1060815216933
Tunis,ruins,,,,,,35.56600890771831,8.452636551335772,1835.0565517434175
Tunis,ruins,,,,,,35.56515093561684,8.452226648401762,1286.9317580641653
Tunis,ruins,,,,,,35.56531097021704,8.452876739034238,1528.9816167520717
Tunis,,mosque,place_of_worship,,مسجد السوق,مسجد السوق,34.38060210705681,8.150628130662735,1835.3859389682407
Tunis,,yes,place_of_worship,,,,36.875268268566806,10.328596998657773,1080.821411145685
Tunis,,,place_of_worship,,,,36.8654450794093,10.29236092257203,539.3690308376258
Tunis,,mosque,,,,,36.8654529462817,10.292365486776077,240.93376042263262
Tunis,,mosque,place_of_worship,,جامع التوبة,جامع التوبة,36.75805078382806,10.222633059581005,3225.692235076223
Tunis,,mosque,place_of_worship,,,,36.75666638372458,10.227559531613204,944.7239168761785
Tunis,city_gate,yes,,,باب الغربي,باب الغربي,35.77257625200783,10.826929703242776,66.17419467139622
Tunis,city_gate,yes,,,,,35.77165633156576,10.827975990307596,48.82789428431771
Tunis,city_gate,yes,,,,,35.77314761892906,10.831370591025841,47.91200072387101
Tunis,city_gate,yes,,,باب بريقشة,باب بريقشة,35.77281675372088,10.830562336488377,134.99202889230273
Tunis,ruins,,,,Jazirat Sidi al Ghudamisi,,35.787076325673695,10.833779325578954,6916.510101510437
Tunis,,yes,place_of_worship,,جامع اليسر,جامع اليسر,36.85418052165484,10.254192277375646,1021.4676174138011
Tunis,,yes,place_of_worship,,Mosquée ESSALAM,,36.86463230098797,10.25043227457927,404.6320498933579
Tunis,,yes,place_of_worship,,,,35.62389038950135,10.756308368032775,414.53308301670677
Tunis,,mosque,place_of_worship,,R6 جامع النور,,35.76777305,10.829168300000001,1963.1128881924492
Tunis,,mosque,place_of_worship,,جامع العمران,جامع العمران,35.76258548989166,10.807349969955379,342.51113051053653
Tunis,monument,,,,Bataille de Jallaz,,36.7887473455603,10.181042953813991,18.290646564086924
Tunis,ruins,,,,Henchir Tala,,33.69929202354185,10.914961721707115,498.8042717409711
Tunis,,mosque,place_of_worship,,,,33.87558685743323,7.872764770780354,1419.3888704686701
Tunis,,mosque,,,,,36.87810689141791,10.266486269221529,994.6758606041775
Tunis,ruins,,,,Cisternes,,35.61532652418331,11.038512358207415,7154.001689744609
Tunis,ruins,,,,Amphitheatre of Thapsus,,35.61912716257777,11.042406156891456,4678.544211099239
Tunis,,mosque,place_of_worship,,,,33.29179245085839,10.154901145527907,166.85101592017895
Tunis,archaeological_site,yes,,,Sidi Boujlida,,33.291293824651426,10.158707860587484,55.75798733895407
Tunis,,yes,,museum,Musée militaire de la ligne défensive de Mareth,,33.59614860412181,10.311437318420108,237.8661318168864
Tunis,,,place_of_worship,,جامع برج المسعودي,جامع برج المسعودي,36.28949468882688,9.061017722367573,3453.006066209139
Tunis,archaeological_site,,,,Bogenmonument für Gordian III,,36.33724055986237,9.146713922935122,51.00818161794678
Tunis,,,place_of_worship,,,,35.698796161332076,10.794992344828136,1696.8674330487786
Tunis,ruins,,,,,,37.30150183333333,9.869600800000002,92.57850805339181
Tunis,memorial,yes,,,النصب المقبرة الشهداء بنزرت,النصب المقبرة الشهداء بنزرت,37.27532965000001,9.852845750000002,34.16005781224313
Tunis,,yes,place_of_worship,,مسجد الرحمة,مسجد الرحمة,33.344465836965135,10.508603573131346,285.18134612542707
Tunis,,mosque,place_of_worship,,Mosque Essalam - Zarat,,33.66623843545037,10.34887174007269,975.0284733042879
Tunis,archaeological_site,,,,Pheradi Majus,,36.249512411706874,10.399053679229098,205428.99021775107
Tunis,ruins,,,,,,36.25002439464253,10.399862443890958,506.9186394712175
Tunis,ruins,,,,,,36.25081859259892,10.401304144703985,2248.763890470785
Tunis,,yes,place_of_worship,,Mosquée,,36.39873276992184,10.151806494945122,559.3884947350609
Tunis,archaeological_site,,,,Bir Rhezen,,33.50371237152856,9.4981307967962,2804.8877199126923
Tunis,ruins,,,,Benia Guedah Ceder,,33.655207722450115,9.61606756540086,2392.2138436828764
Tunis,archaeological_site,,,,Henchir el-Hadjar,,33.704685326353506,9.809242810355991,2326.857451392425
Tunis,archaeological_site,yes,,,Roman Theater,,35.16739599463979,8.799330693436305,1006.7654550149008
Tunis,ruins,,,,,,35.875700363184784,8.786789580718976,1856.389362696757
Tunis,ruins,,,,,,35.87523387053092,8.78636488824978,1163.470792878863
Tunis,ruins,,,,Althiburos (Henchir Medeina),,35.873914281984554,8.785478253581962,12597.731132921122
Tunis,ruins,,,,,,35.87490566255042,8.78498534909712,302.66939040285024
Tunis,ruins,,,,Chemtou: Théâtre,,36.491533504843765,8.571808559416674,1085.7940964830996
Tunis,,yes,place_of_worship,,Kbir,,33.511960388380686,11.115691551969585,842.9887029497618
Tunis,,,place_of_worship,,Mosquée Sidi Said,,36.169694198185326,9.654791433024513,413.1470457246568
Tunis,ruins,,,,,,35.85606545,9.205203000000001,57.420042816595505
Tunis,ruins,,,,Kbor Klib,,36.0125238,9.218703950000002,407.15198890742374
Tunis,ruins,,,,Monument punique,,35.8516574,9.2029079,17.87435971449974
Tunis,,mosque,place_of_worship,,,,36.006034668942405,9.43278811122304,816.8643869944528
Tunis,,yes,place_of_worship,,مسجد عمر بن الخطاب,مسجد عمر بن الخطاب,34.53772571754327,9.246041609722877,521.9919578366504
Tunis,,yes,place_of_worship,,الجامع الكبير المحطة,الجامع الكبير المحطة,34.540872228916534,9.254688857425906,597.8985313151848
Tunis,,yes,place_of_worship,,جمعية رياض الجنّة للقرآن الكريم بالسند,جمعية رياض الجنّة للقرآن الكريم بالسند,34.540806414293066,9.254817879422294,41.056829854031015
Tunis,,yes,place_of_worship,,جامع الحمد,جامع الحمد,36.02769055657224,10.499885112427917,1118.3337764145836
Tunis,,yes,place_of_worship,,,,36.03070158568951,10.510123476635087,821.4778707252901
Tunis,,yes,place_of_worship,,الجامع العتيق,الجامع العتيق,36.03050604844477,10.508652856843117,332.05907329964987
Tunis,,,,museum,المتحف الأثري بشمتو,المتحف الأثري بشمتو,36.4895279768727,8.576818402460537,12502.758705678409
Tunis,ruins,,,,Chemtou: église italienne du 19ème siècle,,36.49140854147806,8.576012131854316,92.94615196428867
Tunis,ruins,,,,Chemtou: Amphithéâtre,,36.49045463637119,8.58050446047507,2456.390692528267
Tunis,ruins,,,,Chemtou: aqueduc,,36.49598375,8.573280249999998,2896.8722577741446
Tunis,ruins,,,,Chemtou: église byzantine,,36.49487148451538,8.579575265241177,411.2935851622398
Tunis,ruins,,,,"Chemtou: Camp de travail forcé, de l'administration de la carrière, la garnison de garde",,36.49544398952613,8.581562832042188,30878.34488152099
Tunis,ruins,,,,"Chemtou: Forum avec la basilique, voûte, fontaine et précédente tombeaux numides",,36.49076379966312,8.573817865970778,15365.75386754245
Tunis,ruins,,,,Chemtou: Grand bâtiment romain (Administration de carrière?),,36.49094360658076,8.577911613791123,2258.2644696677457
Tunis,ruins,,,,Chemtou: Marché de basilique,,36.49145395000001,8.57328235,1671.0019811091938
Tunis,ruins,,,,Chemtou: bains municipaux,,36.49345377538023,8.572889740635699,14338.640778398654
Tunis,ruins,,,,"Chemtou: numide sanctuaire de la colline, le temple de Saturne, église byzantine",,36.49290978162096,8.579999263993129,876.3491602280053
Tunis,archaeological_site,,,,Chemtou: Roman carrières de marbre profonde,,36.49292887117867,8.577478121542281,9794.264127539613
Tunis,ruins,,,,Chemtou: bâtiments funéraires romains,,36.490082199999996,8.5796475,1961.7640314133314
Tunis,archaeological_site,,,,Chemtou: carrière romaine déchets monticule,,36.49082248519667,8.578599168802155,4109.468976288098
Tunis,ruins,,,,Chemtou: route de transport romain de la carrière de la rivière,,36.48968288830217,8.57666157648397,707.0308673488362
Tunis,ruins,,,,Chemtou: Sanctuaire de Caelestis,,36.49285517280697,8.578686993132932,1637.7905083224418
Tunis,ruins,,,,Chemtou: Sanctuaire de la Dii Mauri,,36.4932034,8.580912699999997,1127.1586144270632
Tunis,ruins,yes,,,Les Thermes Romain de Hammam Mellegue,,36.18333201301048,8.57537513946265,827.5757048602285
Tunis,,,place_of_worship,,,,36.84997522609769,10.177145508678006,2989.9752365556005
Tunis,archaeological_site,,,,أطلال,أطلال,36.527774749206564,9.361889949338579,2403.5660092020853
Tunis,,yes,place_of_worship,,,,33.538990894596324,10.677769878613589,281.94788720252
Tunis,archaeological_site,,,,Gigthis,,33.53238331908328,10.676691732474406,56530.60713531766
Tunis,ruins,,,,الجسر الروماني,الجسر الروماني,35.86279922176774,9.516911712520388,392.00169999716593
Tunis,,mosque,place_of_worship,,,,35.81341668654937,9.36451456187309,275.6998886680551
Tunis,,mosque,place_of_worship,,,,35.99114325450856,9.543763200994688,400.7180387354504
Tunis,,mosque,place_of_worship,,,,35.5419426,9.073400800000003,1510.9444258338162
Tunis,ruins,,,,Amphithéâtre,,35.24363066905573,9.11458106303807,4829.582057822178
Tunis,ruins,,,,Arch of Antonimus-Pius,,35.2403299235832,9.120086462855404,33.28757011017292
Tunis,ruins,,,,Chapelle de Jucundus,,35.241678672861866,9.119612136435697,510.05866151934504
Tunis,ruins,,,,Basilique Servus,,35.24033072665337,9.120983425159126,1539.243221524305
Tunis,ruins,,,,Basilique de Vitalis,,35.24189068773266,9.119298431196041,2282.0418750462954
Tunis,ruins,,,,Citernes,,35.239390998567806,9.120683522875991,541.0683797133537
Tunis,ruins,,,,Fountain,,35.23999115000001,9.121422749999999,257.26120362594776
Tunis,ruins,,,,Grand Thermes,,35.23961697683616,9.12149276056279,4375.678846725134
Tunis,ruins,,,,Temple,,35.2431047393265,9.116273216563965,1048.2405273930378
Tunis,ruins,,,,Arc septentrional,,35.2433695,9.11570895,81.14049007202689
Tunis,ruins,,,,Édifice des Saisons,,35.242731369927164,9.11595675343539,3495.980040601329
Tunis,,,,museum,,,35.23620177586643,9.12161895280353,1810.602237777318
Tunis,ruins,,,,Petite basilique,,35.24320444599193,9.115324316401392,363.4758201473991
Tunis,ruins,,,,Pont Aqueduc,,35.245226999999986,9.11763635,189.0440859023143
Tunis,ruins,,,,Thermes,,35.241412820245735,9.121165658763095,1014.1460783932223
Tunis,ruins,,,,Basilique du Bellator,,35.24164321230563,9.119893770181644,1407.3543586914925
Tunis,ruins,,,,Basilique du Forum,,35.240912849999994,9.1194868,852.0880285830399
Tunis,ruins,,,,Église des martyrs,,35.23812645,9.120740849999999,337.47455331090384
Tunis,ruins,,,,Fontaine,,35.24204915390927,9.11729408099335,482.04585166873574
Tunis,ruins,,,,Fortin,,35.237394439274674,9.121102438592047,492.45225650982775
Tunis,ruins,,,,Fortin,,35.23786815,9.121129499999999,432.930086883733
Tunis,ruins,,,,Fortin,,35.236591567061076,9.122379847724957,671.31760994758
Tunis,ruins,,,,Petites thermes,,35.24225780771043,9.119346239470348,583.2740128945969
Tunis,ruins,,,,Petites thermes,,35.237890729082075,9.12050120290192,510.27003132959146
Tunis,ruins,,,,Henchir Douama Amphitheatre,,36.41240757738168,9.085095088229748,2131.2807145734737
Tunis,archaeological_site,,,,,,36.110590089961526,9.283095114964697,1133.2284388875703
Tunis,ruins,,,,,,36.116129196274755,9.27982762739136,195.43805169840394
Tunis,archaeological_site,,,,,,36.11169194080708,9.286120713866818,37584.420628950604
Tunis,ruins,,,,,,36.11232663944075,9.284043999017847,3606.879631247802
Tunis,ruins,,,,,,36.10881776255646,9.28406926220987,2429.9726849809995
Tunis,,yes,place_of_worship,,جامع مسجد العصر,,33.336019614577864,10.47245928920514,1466.9559094292715
Tunis,archaeological_site,,,,Zanfour Theatre,,35.994338983918304,9.01921223025113,3268.2748900591387
Tunis,ruins,,,,,,33.529321125073075,10.674458587620231,842.612668801497
Tunis,,mosque,place_of_worship,,جامع سيدي علي بن عبيد,جامع سيدي علي بن عبيد,33.34766492228637,10.490507446066205,1265.8938362140282
Tunis,,,place_of_worship,,الجامع الكبير,الجامع الكبير,33.34437224111834,10.493246689773594,4567.102732008687
Tunis,,yes,place_of_worship,,جامع القصر الجديد,جامع القصر الجديد,33.30105723829556,10.294281150195223,482.1895353864003
Tunis,building,yes,,,القصر القديم,القصر القديم,33.30121486363405,10.293999549496823,1283.1939936115627
Tunis,archaeological_site,,,,Ulissipira Amphitheatre,,35.95854446277844,10.44116636534156,3468.8975033326965
Tunis,,yes,place_of_worship,,,,33.548525533685996,10.493481978437917,229.88667955727666
Tunis,,yes,place_of_worship,,جامع اللّبة,جامع اللّبة,33.31167296848928,10.524102606072253,322.1730619506567
Tunis,ruins,,,,,,33.58169267471098,8.840440047496848,16976.928513363484
Tunis,ruins,,,,,,34.42987613976152,9.230831987281498,83.57626558399855
Tunis,,yes,place_of_worship,,,مسجد,33.35333992117039,10.495018360480241,418.8216082380378
Tunis,archaeological_site,,,,Pupput,,36.393325899238654,10.561577910169436,26763.89152961912
Tunis,,,place_of_worship,,جامع الرحمة,جامع الرحمة,36.08446181451434,9.366332187104216,2326.2499110246877
Tunis,,mosque,place_of_worship,,,,33.63555299823667,10.341261903235633,359.98622357536954
Tunis,,yes,place_of_worship,,مسجد القرين,مسجد القرين,33.615790689225705,10.515553451819198,493.9905788501535
Tunis,,mosque,place_of_worship,,,,33.869414453181605,10.067571329574497,1086.310322460315
Tunis,,,place_of_worship,,كنيسة مجاز الباب,كنيسة مجاز الباب,36.65050105201349,9.60979277689566,837.6016681372121
Tunis,,mosque,place_of_worship,,جامع المدينة الكبير,جامع المدينة الكبير,36.649248124402334,9.608962522560804,605.6668861173655
Tunis,,,place_of_worship,,,مسجد,36.64972095907806,9.611696470830333,4058.5802942111586
Tunis,,yes,place_of_worship,,,,33.803253911380914,10.032659435386867,197.65612659609957
Tunis,,yes,place_of_worship,,مسجد الفضان,مسجد الفضان,37.060952837053186,10.12088144737595,786.0051505734402
Tunis,,yes,place_of_worship,,جامع عائشة,جامع عائشة,35.75326078771379,10.717862227091173,1051.7186795861116
Tunis,,yes,place_of_worship,,جامع الحمد,جامع الحمد,36.80438693619391,10.142909924266029,480.4122131955287
Tunis,,yes,place_of_worship,,جامع قرطبة,جامع قرطبة,37.059276049894414,10.111512123905783,3035.8973349200423
Tunis,,yes,place_of_worship,,جامع الحاج علي,جامع الحاج علي,37.0631360335624,10.118744296447097,781.5462963264844
Tunis,,yes,place_of_worship,,,,37.017162448959915,10.07422378278311,1758.5539359544114
Tunis,ship,,,,,,33.59283557417692,11.07838276095718,60.38113662656207
Tunis,,mosque,place_of_worship,,,مسجد,36.542680672702886,9.663222036488618,5626.691980559696
Tunis,archaeological_site,,,,Roman House of Masks,,35.817240272674574,10.636540776393922,1286.6744917794206
Tunis,,yes,place_of_worship,,,,36.840871606986724,10.086306488801016,905.905915474985
Tunis,archaeological_site,,,,,,33.68656821324482,8.967947641903555,43873.8612181638
Tunis,archaeological_site,,,,Ancienne Kebili,,33.68656821324482,8.967947641903555,43873.8612181638
Tunis,,church,place_of_worship,,Église de Béja,,36.72389492197784,9.184833525262555,600.9040154383193
Tunis,,church,,,,,35.832960849818264,10.634664609038602,356.51556513915233
Tunis,,yes,place_of_worship,,Mosquée ouled Zid,,34.59780155489294,8.826743833636774,1184.6027333012466
Tunis,,yes,place_of_worship,,MAISON DES CULTURES IBN HAYTHEM,,33.71225585475292,8.972919701581187,4674.175242408877
Tunis,,yes,place_of_worship,,KHALED BEN WALID,,33.70935265771603,8.972058867424233,1407.4785803587502
Tunis,,yes,place_of_worship,,,,33.712001787051115,8.97140388302804,50.87698538446832
Tunis,,yes,place_of_worship,,,,33.69831146675289,8.971609998189868,1768.5379428263132
Tunis,,yes,place_of_worship,,,,33.68665378082171,8.968076083087395,307.93940940673616
Tunis,,mosque,place_of_worship,,مسجد سبحان الله,مسجد سبحان الله,36.803430978274505,10.091244087570338,638.2938230678416
Tunis,,yes,place_of_worship,,,,37.26538779044027,9.843186497345375,1237.034428703499
Tunis,archaeological_site,,,,,,33.53263529282079,10.674154347252564,7543.736296025609
Tunis,archaeological_site,,,attraction,جكتيس,جكتيس,33.53179730768302,10.677103641486958,503698.31679265684
Tunis,ruins,yes,,,,,33.53249716901616,10.676923555113316,2393.575798135156
Tunis,archaeological_site,,,attraction,Henchir Tala,,33.69933270742929,10.91505297467652,3768.6135191419908
Tunis,castle,yes,,,Borj Jelij,,33.88700506842193,10.74658984277878,232.21309687262317
Tunis,,yes,place_of_worship,,جامع عمر ابن عبد العزيز,جامع عمر ابن عبد العزيز,36.804157049107914,10.12296972533926,2755.1873979751817
Tunis,,yes,place_of_worship,,جامع بلال,جامع بلال,36.888245814786146,10.183024364633491,1178.4589383349883
Tunis,,yes,place_of_worship,,جامع الرّبيع,جامع الرّبيع,36.888796444374144,10.195541811821705,796.3899386975675
Tunis,,yes,place_of_worship,,,,36.8825614176535,10.18104583057005,969.6412035973261
Tunis,,yes,place_of_worship,,Jaafar,,36.904585341970005,10.180586547651966,1071.1982136970973
Tunis,,,place_of_worship,,مسجد الفتح,مسجد الفتح,37.26995605991546,9.867564063501066,4904.138121259327
Tunis,,yes,place_of_worship,,Jamaa El Bhira,,37.28357634526408,9.857877249861069,1641.6280432510396
Tunis,,yes,place_of_worship,,Mosquée ennour,,34.42930963851844,8.751825294682362,1155.9800756471739
Tunis,,yes,place_of_worship,,,,32.87284115141357,10.824743661685273,646.1561911940069
Tunis,building,yes,,,قصر أولاد بوبكر,قصر أولاد بوبكر,33.14779893643167,10.44847035036539,708.1230500537109
Tunis,building,yes,,,قصر أولاد بوبكر,قصر أولاد بوبكر,33.147897569942906,10.448013065749668,282.14793227775283
Tunis,building,yes,,,قصر أولاد بوبكر,قصر أولاد بوبكر,33.14776699712527,10.448231436364521,265.1159952222507
Tunis,building,ruins,,,قصر بني غدير,قصر بني غدير,33.08591072939344,10.352552316946026,96.61296217929348
Tunis,building,yes,,,Ksar Kourikhia,,33.24168655504473,10.334196586401996,615.66730643421
Tunis,,yes,place_of_worship,,جامع الفراجين,جامع الفراجين,32.91173407699396,10.263780131605847,144.6351216583969
Tunis,,yes,place_of_worship,,مسجد النخيل,مسجد النخيل,32.86784241826608,10.287117540399048,198.96332725161108
Tunis,,,place_of_worship,,مسجد الأحمدي,مسجد الأحمدي,36.882491243385026,10.331317457732194,4032.8095256678794
Tunis,,mosque,place_of_worship,,,,35.18603603351481,8.864140873703652,768.0077545602907
Tunis,,mosque,,,Jamaa Okra (Louta Sedouikech),,33.72167281490607,10.91191523599876,111.59028153204774
Tunis,,mosque,place_of_worship,,,,33.874392478962235,10.866553560746874,992.411897707763
Tunis,,synagogue,,,كنيس الغريبة,كنيس الغريبة,33.81395609094081,10.859420384167151,421.01497472782154
Tunis,,yes,place_of_worship,,,,33.8166204632597,10.858116153798383,359.60167429338014
Tunis,,,place_of_worship,,جامع الرضوان,جامع الرضوان,36.30036473073771,10.267371754192302,3896.3408113176124
Tunis,,yes,place_of_worship,,جامع الرحمة,جامع الرحمة,36.337906458392894,10.337054832041721,1224.8066304456404
Tunis,,yes,place_of_worship,,جامع النور,جامع النور,36.268653485782266,10.262104575996952,1963.8422902348475
Tunis,,yes,place_of_worship,,جامع الفتح,جامع الفتح,36.2710342541136,10.327306023929902,194.99142084732526
Tunis,,yes,place_of_worship,,جامع العاقل,جامع العاقل,33.827900550346506,10.852067453087098,423.3941198976614
Tunis,,yes,place_of_worship,,جامع الرحمة,جامع الرحمة,36.96994438773601,11.050134168264485,1517.3415643146384
Tunis,,mosque,place_of_worship,,مسجد الرحمن,مسجد الرحمن,33.8278369570638,10.90943358511178,387.9483757769496
Tunis,,mosque,place_of_worship,,جامع سيدي ناصر,جامع سيدي ناصر,33.8203012209255,10.899664804793382,1306.9699318168934
Tunis,,yes,place_of_worship,,El Younsi,,33.8333735051213,10.905908690558679,409.59689474630227
Tunis,,yes,place_of_worship,,El Guechai,,33.8389541,10.90594275,107.00603894194111
Tunis,,yes,place_of_worship,,جامع الإخلاص,جامع الإخلاص,36.84675949530817,11.086442945837808,568.7581624594288
Tunis,,yes,place_of_worship,,مسجد سيدي حمد البناني,مسجد سيدي حمد البناني,35.675582081389734,10.836525739693299,1395.1921917405343
Tunis,,yes,place_of_worship,,جامع الغفران,جامع الغفران,35.68007646170377,10.835590138737109,1696.8587236540961
Tunis,,yes,place_of_worship,,مسجد القصبة,مسجد القصبة,37.2780568873348,9.876638683431779,365.6054185146412
Tunis,,yes,place_of_worship,,مسجد سيدي بوشوشة,مسجد سيدي بوشوشة,37.254304990998165,10.056360480884575,1121.3909126953636
Tunis,,yes,place_of_worship,,,,33.88806881342199,10.104774037634252,276.4320462811537
Tunis,archaeological_site,,,,,,34.64726169252997,10.68125191027129,5052.1439428562135
Tunis,archaeological_site,,,,,,34.649673111135236,10.682934116780025,11225.877020101163
Tunis,archaeological_site,,,,,,34.649673111135236,10.682934116780025,11225.877020101163
Tunis,,yes,place_of_worship,,,,33.87811883114575,10.862832958082912,268.65443463358713
Tunis,,yes,place_of_worship,,جامع ميدون,جامع ميدون,33.80639311808965,10.991352568259307,489.4114506221602
Tunis,,,place_of_worship,,,,33.86270310535312,10.09579123805043,669.5726156056041
Tunis,,,place_of_worship,,,,33.86545547472871,10.079352011187705,611.411278410586
Tunis,,yes,place_of_worship,,Cité Eddir,,36.18046065900837,8.7284918335372,429.6400880928817
Tunis,castle,yes,,hotel,قصر بيرم,قصر بيرم,36.795631375179276,10.171116586563766,506.5232936208093
Tunis,,yes,place_of_worship,,,,33.879952150243284,10.091923247703589,1647.0136312986463
Tunis,,,place_of_worship,,جامع الإمام سحنون,جامع الإمام سحنون,36.73854213531219,10.244106104904903,1759.6943626422992
Tunis,,yes,place_of_worship,,جامع بن عمران,جامع بن عمران,33.74409020949623,10.919737603926071,237.5612669990456
Tunis,,yes,place_of_worship,,جامع الرحمان,جامع,33.810778695756674,10.990992097707059,1542.1389398091824
Tunis,,yes,place_of_worship,,,,36.740729277575944,10.309208011395842,1929.3967983718326
Tunis,,mosque,,,,,33.78204609669617,11.010272865103788,85.33241409738366
Tunis,,mosque,,,,,33.78192724761368,11.01015587734075,34.672428803280496
Tunis,,mosque,,,,,33.78184284998806,11.010164117643521,114.46312463294825
Tunis,,mosque,place_of_worship,,,,33.78183401234518,11.010377143238792,173.65836699223092
Tunis,,yes,place_of_worship,,,,33.76343519011255,11.0177508027817,562.4053669497137
Tunis,,yes,place_of_worship,,Mosquée Laffam,,33.606132863609865,10.064732886258701,154.85887474274273
Tunis,,yes,place_of_worship,,,,33.65604208684629,9.911798161464546,387.67451104254013
Tunis,ruins,,,,,,33.57405816518778,9.823638292624866,146872.375315782
Tunis,ruins,yes,,,قصر الجؤامع,قصر الجؤامع,33.25113428179819,10.258389325666625,2314.8026775509475
Tunis,ruins,yes,,,Ksar Kherachfa,,33.188615350099646,10.292565402809107,1524.0898020652717
Tunis,,yes,place_of_worship,,,,33.51063805527073,10.143079788269292,218.4716976238223
Tunis,ruins,,,,Arcade romaine,,36.64233184928834,10.130495908970776,84.5120116634188
Tunis,ruins,,,,Arcade romaine,,36.64317919064678,10.130791496500711,55.30347138249145
Tunis,ruins,,,,Arcade romaine,,36.64491249043775,10.131384780014619,42.742195842840715
Tunis,ruins,,,,Arcade romaine,,36.648141124855734,10.132488971186126,90.64613966073466
Tunis,ruins,,,,Arcade romaine,,36.64884934706218,10.132729783803558,32.010844722015435
Tunis,ruins,,,,Arcade romaine,,36.649847391578845,10.133066872224502,182.43437939906136
Tunis,ruins,,,,Arcade romaine,,36.65059174431851,10.133303286039045,101.89969660086462
Tunis,ruins,,,,Arcade romaine,,36.65095929170536,10.133725293263678,159.41172746241958
Tunis,ruins,,,,Arcade romaine,,36.62812183229088,10.12925573307879,6922.879664892097
Tunis,,yes,place_of_worship,,جامع المظهار,جامع المظهار,33.26992451298897,10.128133705864201,378.3441027557558
Tunis,,yes,place_of_worship,,,,33.40426165789817,10.192994404989019,319.6241590079218
Tunis,,yes,place_of_worship,,جامع الصايخة,جامع الصايخة,33.41217034603811,10.28487186254646,263.7582681857027
Tunis,,yes,place_of_worship,,,,33.26392565990981,10.322565034217266,272.0135827893104
Tunis,,yes,place_of_worship,,,,36.792645220019104,10.173350030052953,117.33128152175777
Tunis,,yes,place_of_worship,,مسجد تشين,مسجد تشين,33.47700913240221,10.000209833823941,206.33899826932253
Tunis,,yes,place_of_worship,,,,32.852958742709525,10.475205746609495,487.10687118624577
Tunis,ruins,yes,,,Ksar Bou Ziri,,32.809532572451374,10.455048832387025,965.0747597257548
Tunis,ruins,yes,,,,,32.80932523364235,10.455550345528138,134.1859246720196
Tunis,ruins,,,,Ksar Rahache,,32.75725097622452,10.250146847281304,10421.155384608603
Tunis,archaeological_site,yes,,,,,32.76541023018521,10.276249581774673,2453.192183759815
Tunis,archaeological_site,yes,,,,,32.76541016255972,10.277662945614408,7407.743623931159
Tunis,ruins,,,,Ksar Mgassa,,32.72571998209184,10.278610152825317,15965.339646777868
Tunis,ruins,yes,,,Ksar Chitana,,32.79169811786561,10.303056628195003,739.5307409353442
Tunis,ruins,,,,حاف جرجر,حاف جرجر,32.73784563240251,10.297047424864829,17653.919428329547
Tunis,,yes,place_of_worship,,,,32.95986115,10.645111799999999,193.4837091958168
Tunis,,mosque,,,,,32.9911824186291,10.580744632278973,34.728700222452176
Tunis,,mosque,,,,,32.991464449999995,10.580829600000001,21.76031217150883
Tunis,,mosque,,,,,32.99120178763422,10.580520337623565,41.35587657361235
Tunis,,mosque,,,,,32.99127837218753,10.580711805478778,184.51184849753724
Tunis,,yes,place_of_worship,,,,32.97039116746823,10.661898084796084,89.85634971734585
Tunis,,yes,place_of_worship,,جامع قصر أولاد بوبكر,جامع قصر أولاد بوبكر,33.14850256632491,10.44854550732456,405.06771894696624
Tunis,,yes,place_of_worship,,,,33.317921976432196,10.108481932323834,109.02309501873057
Tunis,,yes,place_of_worship,,,,36.73270040070299,10.207941391899665,2184.8815517951125
Tunis,castle,yes,,,دار باش حامبة,دار باش حامبة,36.796215342378474,10.173455432918358,977.9210424295962
Tunis,,yes,place_of_worship,,,,36.72847682774047,10.207635811813352,3282.516315474198
Tunis,,,place_of_worship,,,مسجد,36.72331971515924,10.210946170680685,1963.8251992600526
Tunis,,,place_of_worship,,,,36.72429650357145,10.215872620501848,1871.221197599668
Tunis,,yes,place_of_worship,,مسجد الغفران,مسجد الغفران,36.72082039808263,10.206435320795526,582.5230472223083
Tunis,,terrace,place_of_worship,,,,36.845353559459475,10.119299120837319,25.138990185229908
Tunis,castle,yes,,,قصر خير الدين باشا,قصر خير الدين باشا,36.801699069651214,10.168505673709546,576.9686464144349
Tunis,,yes,place_of_worship,,,,36.794622713937244,10.17236899199392,139.10037309104774
Tunis,,yes,place_of_worship,,جامع الرحمة,جامع الرحمة,36.84145764144259,10.10303476749944,410.2675609277239
Tunis,,yes,place_of_worship,,مسجد حمزة,مسجد حمزة,36.83200385332666,10.106388302368073,1645.6853293113377
Tunis,,yes,place_of_worship,,Mosquée Bilel,,36.82904148316063,10.10437825616445,1038.4498476873084
Tunis,,yes,place_of_worship,,,,36.84429024923637,10.098270407859115,1024.8442855763283
Tunis,,yes,place_of_worship,,جامع سيدي محرز,جامع سيدي محرز,33.867929556473264,10.963728397320745,308.76653236299126
Tunis,,yes,place_of_worship,,جامع الفتح,جامع الفتح,36.84156801993364,11.077026014362676,248.31756231772476
Tunis,,yes,place_of_worship,,Rahma,,36.83670092182659,10.115326280831562,1629.6921256483984
Tunis,,yes,place_of_worship,,,,36.83681521366998,10.109785313258019,1107.4516145614555
Tunis,,mosque,place_of_worship,,جامع تلاكين,جامع تلاكين,33.85820667069097,10.93252946418722,249.41822246378018
Tunis,,mosque,,,جامع تلاكين,جامع تلاكين,33.85828333148994,10.932213288917389,155.17414652483575
Tunis,,yes,place_of_worship,,,,36.82926548527438,10.113317847079035,1804.252272250789
Tunis,,yes,place_of_worship,,جامع الفتح,جامع الفتح,36.44940909133348,8.443688633333332,909.9811247546484
Tunis,,yes,place_of_worship,,جامع ثابت بن قیس,جامع ثابت بن قیس,36.443992877048224,8.432406301584834,1347.8416467447203
Tunis,,yes,place_of_worship,,awon allah,,36.832952628144874,10.09852517227003,1024.1298564592832
Tunis,,yes,place_of_worship,,جامع سيدي روبيل,جامع سيدي روبيل,33.82024476555187,11.029775609296205,137.33616407191963
Tunis,,mosque,,,جامع سيدي وحلان,جامع سيدي وحلان,33.78788611811508,11.033439631684725,645.7850019399951
Tunis,,yes,place_of_worship,,,,33.86192885058451,10.806499541468495,509.96478460158556
Tunis,,yes,place_of_worship,,,,33.860429384881634,10.851591485844251,108.14680884003437
Tunis,,yes,place_of_worship,,,,36.83243116945355,10.10982557968684,347.8890530552974
Tunis,,mosque,,,Jamaa Sellaouti,,33.84486765297852,10.969770417897962,60.81264033340756
Tunis,,yes,place_of_worship,,جامع القايد,جامع القايد,33.82025703298469,10.945767952240661,265.33786806975735
Tunis,,yes,place_of_worship,,,,33.728217173226035,10.857157672544357,520.932467494957
Tunis,,mosque,,,Jamaa Boumesour (qadima),,33.71003803301568,10.863345052465418,129.93076245370997
Tunis,,yes,place_of_worship,,Jamaa Boumassour (jedida),,33.71032467732131,10.863543042735749,491.71556134627974
Tunis,,mosque,,,جامع تيواجن,جامع تيواجن,33.75749101285102,10.825797114053398,199.8168685894792
Tunis,,yes,place_of_worship,,,,33.88186812247939,10.088028657383875,1449.850399379873
Tunis,,mosque,,,El Mouhechi Mosquée,,33.72245041640095,10.887229647780169,61.29187485158727
Tunis,building,yes,,,,,33.72228775211568,10.887016774461957,54.90482361169808
Tunis,,yes,place_of_worship,,Jamaa el Hâra,جامع الحارة,33.69621078285374,10.903161653097927,63.13498013126628
Tunis,,yes,place_of_worship,,,,33.712904890953205,10.925010873184808,218.78513825050098
Tunis,archaeological_site,,,attraction,منينكس,منينكس,33.68733773973758,10.921671896291405,645249.376127735
Tunis,,yes,place_of_worship,,,,33.87256664748687,10.909136702892724,276.6020233234522
Tunis,,mosque,,,Mosquée Sidi Smain,,33.87348395,10.90894425,47.17901462035177
Tunis,,yes,place_of_worship,,mosquée alttawhid,,36.83533416631972,10.098873204280542,439.223207675652
Tunis,,yes,place_of_worship,,Jamaa Ben Younes,جامع بن يونس,33.86935819617862,10.89378847887326,55.770016190518916
Tunis,ruins,,,,Ksar El Ain (Ksar Cherchara),,32.90781440819953,10.952289325010836,8068.574860067127
Tunis,archaeological_site,,,,,,32.67755350496677,10.898958795008618,16919.99195533961
Tunis,,yes,place_of_worship,,,,36.838304900000004,10.10363605,638.8738058057908
Tunis,ruins,,,,,,32.95847805,11.4821496,3626.8725673394274
Tunis,,mosque,,,Mosquée Firdaous,,33.784440845638386,11.045607219807634,219.65348964726547
Tunis,,yes,place_of_worship,,El Troguetiya mosquée,,33.80943628831762,11.022627002291813,198.33221082283987
Tunis,,mosque,place_of_worship,,Sidi Yati Mosquée,,33.81687671805238,11.016708359011124,406.862660100643
Tunis,,mosque,,,,,33.8167541,11.0168743,89.31722246291766
Tunis,,mosque,,,,,33.816755681479606,11.016700313641959,22.15943953591691
Tunis,,mosque,,,,,33.81700950022627,11.016739516901001,104.36174828452953
Tunis,,yes,place_of_worship,,جامع بلال,جامع بلال,36.856290656414195,11.093854697500323,560.773191035256
Tunis,,mosque,place_of_worship,,جامع سيدي فرج,جامع سيدي فرج,36.72037704242354,9.19432752542926,2163.395147096086
Tunis,city_gate,yes,,,السقيفة الكحلة,السقيفة الكحلة,35.50391156394291,11.068687890082131,554.0833560428673
Tunis,,yes,,museum,متحف المهدية,متحف المهدية,35.50375760589798,11.068802704825169,795.338128883182
Tunis,,yes,place_of_worship,,,,36.75040361900422,10.25120137262614,2190.5552762287416
Tunis,,yes,place_of_worship,,Mosquée Enfidha,,36.13245175165689,10.379779194964494,814.8768643393698
Tunis,,yes,place_of_worship,,Mosquée Gofrane,,36.4650170476937,10.806720064965187,1913.7433442913482
Tunis,,yes,place_of_worship,,,,36.464620260218815,10.803111767971659,359.7581529031622
Tunis,,yes,place_of_worship,,مسجد المدو,مسجد المدو,33.80597112961492,10.069880357678844,238.18770368193555
Tunis,,yes,place_of_worship,,,,33.8858179969882,10.101936195749406,390.5818258103038
Tunis,,yes,place_of_worship,,الجامع الكبير تبلبو,الجامع الكبير تبلبو,33.842702952119495,10.118817450258287,697.428119842876
Tunis,,yes,place_of_worship,,,,33.897550963702905,10.081892716572787,804.3067705542696
Tunis,,yes,place_of_worship,,,,33.90496752704831,10.061693367656238,819.7029113337687
Tunis,building,yes,,,قصر أولاد بوعبيد,قصر أولاد بوعبيد,33.22276277243184,10.158037382134669,828.6942336085522
Tunis,ruins,yes,,,,,33.22313582568894,10.158326164455083,57.17084153597306
Tunis,,yes,place_of_worship,,,,33.22322557693238,10.158075058111159,149.72305882314043
Tunis,building,yes,,,قصر أولاد بوعبيد,قصر أولاد بوعبيد,33.22265220172117,10.158449481910411,451.9969176624651
Tunis,,mosque,place_of_worship,,مسجد زمور,مسجد زمور,33.26278699649299,10.186434913823371,356.1346492613846
Tunis,,mosque,,,,,33.5432080397011,9.935006766786596,211.68700963380923
Tunis,,yes,place_of_worship,,,,36.735697197486815,10.23850023316586,1483.979068030289
Tunis,,yes,place_of_worship,,,,36.74031812713024,10.232889826178807,1843.1695505216267
Tunis,,yes,place_of_worship,,,,33.37463161819097,10.544792859901225,294.7896594521073
Tunis,,yes,place_of_worship,,Ouled Helal,,33.815583626825074,10.976996393413025,554.523838292062
Tunis,building,yes,,,Ouled Helal - ancienne mosquée,,33.815394899999994,10.97653395,125.09426667239308
Tunis,,mosque,,,جامع بوليمان,جامع بوليمان,33.82337510944335,10.936445930878246,199.4471111043407
Tunis,,yes,place_of_worship,,جامع المدينة,جامع المدينة,33.82253838212097,10.866983878034874,471.4073194997959
Tunis,,yes,place_of_worship,,جامع الجديد,جامع الجديد,33.82073176547742,10.953785783751613,74.73043449836727
Tunis,,yes,place_of_worship,,Mosquée Fadhloun,,33.8247562014954,10.959331669432524,365.86854009062915
Tunis,,yes,place_of_worship,,جامع الملاق,جامع الملاق,33.826742757428896,10.881989062987772,350.062611123023
Tunis,tomb,yes,,,,,33.83455240169128,10.890857834777487,53.17598442526053
Tunis,,yes,place_of_worship,,Jamaa Bou Mokhil,,33.83463845409125,10.890610192101299,178.4054306014551
Tunis,,yes,place_of_worship,,جامع الشيخ,جامع الشيخ,33.84651815809814,10.894292098954566,151.35193020456097
Tunis,,yes,place_of_worship,,جامع الباسي,جامع الباسي,33.843287252711875,10.888273541455503,176.71148921619678
Tunis,,yes,place_of_worship,,Jamaa Goujel,جامع قوجيل,33.80970209757798,10.871078377072353,294.0026723346975
Tunis,,yes,place_of_worship,,Jaber Ibn Zayed,,33.81106206300011,10.93626166728752,571.1929125354256
Tunis,,yes,place_of_worship,,جامع برا,جامع برا,33.79174916385556,10.951131931949032,213.20194409399917
Tunis,,yes,place_of_worship,,جامع الرياض,جامع الرياض,33.821268563243244,10.855677116518937,297.5231473845313
Tunis,archaeological_site,,,,Bararus Amphitheatre,,35.21181881111916,10.791287550921693,2514.5380917755097
Tunis,,yes,place_of_worship,,Ben Achour Mosquée,,33.802276713508746,11.005429853258313,62.096894094692374
Tunis,,mosque,,,,,33.81687065,11.00340975,25.088068047944304
Tunis,,mosque,,,,,33.81679079023982,11.003454134610951,42.0046053197199
Tunis,,mosque,,,,,33.816715276796415,11.003387046309077,56.128996934291386
Tunis,,mosque,place_of_worship,,مسجد المقارسة,مسجد المقارسة,33.81672199743645,11.003203309031296,409.79553545667886
Tunis,archaeological_site,,,,Amphitheatre of Leptis Minor,,35.67812714287467,10.866226981013728,4668.178686355242
Tunis,,yes,place_of_worship,,,,37.283866332551455,9.86498635545301,1606.5250213120416
Tunis,,yes,place_of_worship,,,,37.29160627896952,9.864292885328455,2084.785032468635
Tunis,,yes,place_of_worship,,جامع الربع,جامع الربع,37.27561359004494,9.873634118583158,929.869208874584
Tunis,,yes,place_of_worship,,,,33.1747659,10.191986599999998,168.89768322261386
Tunis,building,yes,,,Ksar Abiar,,33.18023954932497,10.254180172589654,254.41339735549707
Tunis,building,yes,,,Ksar Abiar,,33.18073462475201,10.254503915065262,240.790527026122
Tunis,building,yes,,,Ksar Abiar,,33.18049243074408,10.254094478039223,108.78697387756665
Tunis,building,yes,,,Ksar Abiar,,33.17982398157915,10.254556430804547,667.1952721780877
Tunis,,yes,place_of_worship,,,,33.576805149318524,10.272096505470234,247.00289388943045
Tunis,,yes,place_of_worship,,,,33.16558787832127,10.215237193653426,217.97389381942702
Tunis,,mosque,place_of_worship,,,,33.24214775428483,10.334337011593714,155.428015205753
Tunis,building,yes,,,Ksar Kourikhia,,33.24185100895184,10.333908320598987,1089.6600894873034
Tunis,,yes,place_of_worship,,,,33.23882911563371,10.241032778885575,177.5252851878891
Tunis,,yes,place_of_worship,,جامعة الرايح,,33.26375645405488,10.216529597978264,256.0195531749073
Tunis,,yes,place_of_worship,,,,33.47967175047713,10.354467748922342,218.82047084436468
Tunis,,yes,place_of_worship,,,,33.42425877071654,10.183466207359032,143.25950905504635
Tunis,,mosque,,,,,33.14688025344833,10.225518144794846,441.12715578663324
Tunis,,yes,place_of_worship,,,,33.36790134331874,10.329494318164116,151.40218044954503
Tunis,,mosque,,,,,33.47175244239081,10.258110094713432,58.22983712057182
Tunis,,yes,place_of_worship,,,,33.45334550497022,10.271387609348348,177.38312118845738
Tunis,,yes,place_of_worship,,,,33.30136315613031,10.294666361340438,229.6793305071692
Tunis,,yes,place_of_worship,,,,33.30319435181658,10.338590249934548,178.34100144729877
Tunis,building,yes,,,القصر القديم,القصر القديم,33.301049045060495,10.294724739277342,1779.4098553448334
Tunis,building,yes,,,القصر القديم,القصر القديم,33.30136855290024,10.294504843183683,238.7715264708131
Tunis,,yes,place_of_worship,,,,33.35304392248914,10.210864411089496,161.76951607788368
Tunis,,yes,place_of_worship,,,,33.30128823058234,10.260093623774306,329.51141983834344
Tunis,,yes,place_of_worship,,,,33.332256076309534,10.306323077926656,393.46978374953915
Tunis,,yes,place_of_worship,,,,33.31732084478318,10.26143769858739,205.2543629964129
Tunis,,yes,place_of_worship,,,,33.277811080285616,10.244882797479463,180.78088606632693
Tunis,ruins,yes,,,قصر أولاد ابراهيم,قصر أولاد ابراهيم,33.26187833446117,10.172216588325217,601.74853417127
Tunis,building,yes,,,قصر المحاضة,قصر المحاضة,33.21243038576881,10.188020295030242,78.97294811223786
Tunis,building,yes,,,Ksar El Mhadha,,33.21229748461374,10.188204802848523,306.4013255746347
Tunis,building,ruins,,,قصر المحاضة,قصر المحاضة,33.21268528974665,10.188114731778075,937.2977956269084
Tunis,ruins,yes,,,,,33.213034386952515,10.187948243151006,138.5151663071108
Tunis,,yes,place_of_worship,,,,33.21200883335007,10.187633464040179,287.85859819060465
Tunis,,yes,place_of_worship,,,,33.254500889219884,10.253629382144764,183.62835360138428
Tunis,ruins,yes,,,Ksar Chitana,,32.792027035908234,10.303957047276343,1291.47652095361
Tunis,,yes,place_of_worship,,,,32.86471366817087,10.474629822247463,267.8968319088575
Tunis,,yes,place_of_worship,,,,32.85884477881704,10.47482104162235,332.9099495740799
Tunis,,yes,place_of_worship,,,,32.8981644699138,10.525698374775915,222.52359228090097
Tunis,ruins,yes,,,,,33.05340584639344,10.334238115972003,1664.3993492850625
Tunis,ruins,yes,,,,,33.05358607458588,10.33503026989798,1493.324860846201
Tunis,,mosque,,,,,33.03240129662736,10.37766330023513,106.2389167477294
Tunis,,yes,place_of_worship,,,,33.00633440941305,10.342089792561984,183.69210903512874
Tunis,,yes,place_of_worship,,,,32.98427326845693,10.261883955969475,192.7634075848923
Tunis,ruins,yes,,,,,32.98835811879258,10.250568755671692,1761.0180890037352
Tunis,ruins,yes,,,,,32.98565224085628,10.250633044923761,285.12482122808103
Tunis,ruins,yes,,,,,32.98343043719392,10.249997417068116,976.6961412753673
Tunis,ruins,yes,,,,,32.98738334384658,10.251988159086387,932.8707580488
Tunis,ruins,yes,,,,,32.98535502421328,10.252451541818333,561.7935650558335
Tunis,ruins,yes,,,,,32.98225536701798,10.252464758988749,810.6105973525581
Tunis,ruins,yes,,,,,32.98184610102574,10.248593939971169,961.4805819692663
Tunis,ruins,yes,,,,,32.9885654741383,10.252120995774598,1106.6770024633865
Tunis,ruins,yes,,,,,32.98362047142646,10.252782857350002,2727.2039168516076
Tunis,ruins,yes,,,,,32.98392024170079,10.25092509518125,2254.6265113523446
Tunis,ruins,yes,,,,,32.98275519685377,10.250139316695368,4867.768071328783
Tunis,ruins,yes,,,,,32.98496673706083,10.250470596022218,3566.5204448717955
Tunis,ruins,yes,,,,,32.98489736130906,10.251410045628399,4391.9046235412625
Tunis,ruins,yes,,,,,32.98242863058473,10.252205894182548,4594.0754579142185
Tunis,ruins,yes,,,,,32.98375238365946,10.25159181941629,3014.350723396991
Tunis,ruins,,,,,,32.98255096493617,10.250871364176612,5896.349302832556
Tunis,ruins,yes,,,,,32.98348595135926,10.253363485126313,651.9364530606556
Tunis,ruins,yes,,,,,32.98402306439073,10.249785755190448,509.26328215461086
Tunis,ruins,yes,,,,,32.98499466548782,10.252142111323316,3570.7022343355875
Tunis,ruins,yes,,,,,32.98658243672317,10.251521316550285,226.5761142954488
Tunis,ruins,yes,,,,,32.986092376594605,10.25109036625338,560.1308846036164
Tunis,ruins,yes,,,,,32.98611912208542,10.251772506941453,785.540643422914
Tunis,ruins,yes,,,,,32.98399692210162,10.250198273622233,397.06413499937014
Tunis,ruins,yes,,,,,32.97911268950252,10.252130822979545,10823.820555540786
Tunis,ruins,yes,,,,,33.06099903622699,10.336652521916575,644.2611216776907
Tunis,ruins,yes,,,,,33.06448946049056,10.33759516091353,1763.7719033275998
Tunis,ruins,yes,,,,,33.062371948701305,10.337452751802235,2570.066238223607
Tunis,,yes,place_of_worship,,جامع شنني الجديدة,جامع شنني الجديدة,32.91445474575509,10.278613973133092,379.1496953178622
Tunis,,yes,place_of_worship,,جامع الهداية,جامع الهداية,32.99442004003293,10.460888401215376,760.0425112495643
Tunis,,yes,place_of_worship,,,,33.43533873510687,10.203018622302691,645.0280833150887
Tunis,,yes,place_of_worship,,,,33.26358979502022,10.16551032416558,215.09380100114655
Tunis,,yes,place_of_worship,,,,33.31855611309209,10.224146591762548,214.72858768609998
Tunis,,yes,place_of_worship,,مسجد الزراوة,مسجد الزراوة,33.57324606384943,9.823473532173535,123.36590197721027
Tunis,,yes,place_of_worship,,,,33.50015433821897,9.989544599598824,250.298694871369
Tunis,building,yes,,,Ksar Remtha,,32.734120530004745,10.47932234661291,473.5399122188263
